"name","description","address","zipcode","city","longitude","latitude"
"Crias","Faciliter la vie à domicile des personnes en perte d’autonomie et/ou en situation de handicap.","71C Cours Albert Thomas","69003","LYON","4.8674168","45.747082"
"Rucher pédagogique des Gones","La sensibilisation à l’environnement dans le sens large du terme, et plus particulièrement par la découverte, l’initiation  en apiculture de tout public, notamment les scolaires et apprentis
L’organisation et/ou la participation à des événements en lien avec l’apiculture et plus généralement la nature","33 Rue Saint-Jean-de-Dieu","69007","LYON","4.8454807","45.7242317"
"Mouvement du Nid - Délégation du Rhône","Basée à Lyon, la délégation du Rhône accompagne les personnes en situation de prostitution et les professionnel.le.s du département.","70 rue Rachais","69007","LYON","4.848846","45.749419"
"Nationsorg","Cette association a pour objet : Nationsorg est la plateforme internationale de le réalisation des projets différents en commun
Convergence des francophones et étrangers
L'organisation d'événements et de fêtes internationales
L'organisation de manifestations sportives
L'échange linguistique et culturel avec la mise en place d’atelier et de soirées de rencontres.","75 Cours Richard-Vitton","69003","LYON","4.893574","45.753358"
"Centre socioculturel du Point du Jour","Association de proximité, le centre social propose de nombreuses animations et activités pour tous les âges.","10 Impasse Secret","69005","LYON","4.7946111","45.7555927"
"Association Régionale des infirmes moteurs cérébraux","L’ARIMC gère des établissements et services qui proposent un
accompagnement des personnes atteintes de paralysie cérébrale ou
de troubles neuromoteurs, de la petite enfance à l’âge adulte. Ces lieux
de vie sont conçus pour répondre aux besoins des usagers et favoriser
leur épanouissement.","20 Boulevard de Balmont","69009","LYON","4.8004251","45.7848313"
"Eris, ""Tu seras""""","Eris a pour mission de faciliter l'intégration des personnes réfugiées dès leur arrivée en France. Nous adoptons une approche globale de l'intégration en associant apprentissage du français, découverte de la culture française, création de lien social et accompagnement vers l'insertion socio-professionnelle. Pour cela, nous mettons en place des programmes intensifs aux activités complémentaires qui favorisent un suivi individualisé et qui permettent à chaque participant d'être acteur de son parcours d'intégration. Ainsi, Eris agit comme un tremplin vers l'autonomie et la confiance en soi !","13 bis Rue Girié","69003","LYON","4.8763223","45.7536899"
" Les Foyers Matter - Programme Devenirs","L’Association Les Foyers Matter, reconnue d’utilité publique, est née en 1982 de la fusion de deux Associations, toutes deux d’inspiration protestante :les « Œuvres Etienne MATTER » fondées à la fin du 19ème siècle et « le Foyer du jeune libéré » fondé en 1960.","7 Rue Marc-Antoine Petit","69003","LYON","4.8242942","45.7454927"
"Handicap International","Handicap International est une ONG de solidarité internationale qui intervient dans une soixantaine de pays. ","138 Avenue des Frères Lumière","69008","LYON","4.8712211","45.7437936"
"Fondation Claude Pompidou","Centre associatif de la Mairie du 6ème","37 Rue Bossuet","69906","LYON","4.8503967","45.7679302"
"SPES soutien scolaire","""SPES soutien scolaire""c'est une association loi de 1901, apolitique, non confessionnelle, indépendante et sans but lucratif.""SPES soutien scolaire"" c’est une rencontre chaque semaine entre des enfants, des jeunes en difficulté et une équipe de bénévoles dans les locaux de l'Association.","13 Place de Trion","69005","LYON","4.8062071","45.7623591"
"Association Valentin HAÜY au service des aveugles et des malvoyants - Siège","Acteur historique de l’aide aux personnes déficientes visuelles, l’association Valentin Haüy, créée en 1889 par Maurice de La Sizeranne et reconnue d’utilité publique en 1891, déploie depuis plus de 130 ans un grand nombre de services et d’actions à travers toute la France afin de : défendre les droits des déficients visuels, assurer leur formation et l’accès à l’emploi, restaurer et développer leur autonomie, promouvoir l’accès à l’écrit,  proposer des activités culturelles, sportives et de loisirs accessibles.
","97 Boulevard des Belges","69006","LYON","4.8580908","45.7692536"
"Unicef  Rhône","Nous pouvons vous proposer des activités toute l’année: vous serez reçu par notre équipe d’accueil. Celle-ci vous expliquera comment est organisé notre Comité en plusieurs groupes de travail. Vous aurez la possibilité de choisir l’activité qui vous convient le mieux. Vous investirez le temps que vous souhaitez consacrer à ce bénévolat. Vous pourrez toujours choisir une autre activité quand vous connaîtrez mieux le fonctionnement interne de notre Comité. Nous pourrons vous proposer une formation si nécessaire.","73 Rue Vauban","69006","LYON","4.8490648","45.7655144"
"OPEN (Osez le partage et l'entraide)","OPEN a pour objet de faciliter l’accès à l’éducation, la culture et aux loisirs des enfants, jeunes et adultes issus de milieux défavorisés. Elle assure également des actions sociales (accompagnement des personnes isolées, maraudes au profit des sans-abris, migrants)  et élabore des stratégies globales d’actions humanitaires en faveur des plus démunis de Bamako (Mali)."," 14 rue des Tuileries ","69009","LYON","4.8017315","45.7725135"
"Ateliers Amasco, Jouer et Apprendre","Les Ateliers Amasco sont une association de parents, d'enseignants et d'étudiants spécialisée dans l'éducation et l'égalité des chances","52 rue du Colombier","69007","LYON","4.8412384","45.7459484"
"Fondation Raoul Follereau - Région Sud-Est","Organisme caritatif privé, reconnue d'utilité publique, la Fondation Raoul Follereau poursuit la voie tracée par son fondateur en luttant contre l'exclusion, qu'elle soit causée par la lèpre, la pauvreté ou l'ignorance.","3 rue de Castries","69002","LYON","4.8235157","45.7530055"
"Vos Concierges","Une association de jeunes professionnels du secteur de l’hôtellerie restauration, répartis sur toute la France, qui œuvrent pour faire découvrir leurs métiers.","22 Rue de la Républiqu","69002","LYON","4.8355907","45.7636187"
"Société d'enseignement professionnel du Rhône","La SEPR, association loi 1901 indépendante et laïque, reconnue d’utilité publique depuis 1878, est le plus grand organisme de formation professionnelle dans la région Auvergne-Rhône-Alpes.Créée en 1864 par un saint-simonien, François Barthélémy Arlès Dufour (1797-1871), la SEPR vise alors à assurer « la formation des ouvriers et des employés afin de lutter contre la misère et l’ignorance car même si l’égalité est inscrite dans la Loi, elle ne l’est pas dans les mœurs et moins encore dans les faits ».","46 rue professeur Rochaix","69003","LYON","4.8747433","45.7456171"
"Association départementale d'entraide des personnes accueillies en protection de l'enfance du Rhône","L’ADEPAPE 69 est l’association pour les personnes qui ont été accueillies dans les services de l’Aide Sociale à l’Enfance. Nous accompagnons des personnes à partir de leur majorité qui ont eu une mesure de placement à l'aide sociale à l'enfance.","54 Cours de la Liberté","69003","LYON","4.8400945","45.7577993"
"Habitat et Humanisme - Rhône","Créée en 1985 et située à Lyon, habitat et humanisme Rhône est la première association du Mouvement Habitat et Humanisme. Les personnes et les familles accueillies sont accompagnées dans leur projet de réinsertion par nos équipes mixtes de bénévoles et salariés. ","9 Rue Mathieu Varille","69007","LYON","4.8265782","45.7328811"
"Association de la Fondation Etudiante pour la Ville - Pole Grand Lyon","L’Afev est une association nationale reconnue d’intérêt général depuis 1991 qui mobilise chaque année des milliers d’étudiant.e.s pour accompagner des jeunes en difficulté scolaire et créer du lien dans les quartiers populaires.","3 Rue d'Aguesseau","69007","LYON","4.8400696","45.7542606"
"CONGREGATION DES CARMELITES D'YZERON","Regle de l'ordre du carmel et constitutions etablies par sainte therese d'avila","33 grande rue","69510","YZERON","4.592661","45.706062"
"CENTRE DE LONG ET MOYENS SEJOUR DU MONT D'OR","Hopital public hors hcl","18 rue jean chirat","69250","ALBIGNY-SUR-SAONE","4.832386","45.860768"
"HOPITAL DE BEAUJEU","Le service de Médecine de l'Hôpital de proximité de Beaujeu accueille les patients directement du domicile (sur demande du médecin traitant) ou après un séjour hospitalier (notamment aux urgences).","","69430","BEAUJEU","4.586558","46.154032"
"CITE DE L'ENFANCE","Ddass","","69500","BRON","4.910856","45.735802"
"HOPITAL DE SAINT SYMPHORIEN SUR COISE","HÔPITAL DE SAINT-SYMPHORIEN-SUR-COISE","","69590","SAINT-SYMPHORIEN-SUR-COISE","4.449903","45.632882"
"COMMUNE DE THIZY","Amicale des Donneurs de Sang Bénévoles de Thizy ","","69240","THIZY","4.294489","46.028542"
"COMMUNE DU BOIS D'OINGT","Découvrez les associations proposées par votre mairie !","","69620","BOIS-D'OINGT","4.581079","45.94761"
"COMMUNE DE SAINT GENIS LES OLLIERES","Collectivite locales / Découvrez les associations proposées par votre mairie !","","69290","SAINT-GENIS-LES-OLLIERES","4.726938","45.760554"
"COMMUNE DE BRINDAS","Collectivite locale","","69126","BRINDAS","4.704228","45.719674"
"COMMUNE D'YZERON","Collectivite locale  Découvrez les associations proposées par votre mairie !","","69510","YZERON","4.59643","45.714873"
"COMMUNE D'IRIGNY","Collectivite locale","Mairie","69540","IRIGNY","4.823005","45.673499"
"COMMUNE DE GRANDRIS","collectivité locale","","69870","GRANDRIS","4.466916","46.038324"
"COMMUNE DE SAINT IGNY DE VERS","Découvrez les associations proposées par votre mairie !","","69790","SAINT-IGNY-DE-VERS","4.442063","46.23658"
"COMMUNE DE LA TOUR DE SALVAGNY","Découvrez les associations proposées par votre mairie !","","69890","LA-TOUR-DE-SALVAGNY","4.710794","45.810764"
"COMMUNE DE SAINT-JULIEN-DE-BIBOST","Découvrez les associations proposées par votre mairie !","","69690","SAINT-JULIEN-SUR-BIBOST","4.511446","45.801334"
"COMMUNE DE VILLEURBANNE","Découvrez les associations proposées par votre mairie !","","69100","VILLEURBANNE","4.890035","45.768975"
"COMMUNE DE BRUSSIEU","Découvrez les associations proposées par votre mairie !","","69690","BRUSSIEU","4.52432","45.747414"
"PROVIDENCE SAINT NIZIER","Accueil education formation d'enfants en difficulte","36 rue pierre brunier","69300","CALUIRE-ET-CUIRE","4.830137","45.787157"
"ASSOCIATION DE L OEUVRE SAINT LEONARD","Accueil des personnnes handicapees mentales encadrement social et professionnel (cat a couzon au mont d or)","1 rue chanoine villion","69270","COUZON-AU-MONT-D'OR","4.829955","45.852058"
"SOCIETE D'ASSISTANCE ET DE PATRONAGE POUR LES AVEUGLES DU RHONE ET DES DEPARTEMENTS VOISINS","Procurer aux adultes aveugles du sexe masculin apprentissage d'un metier et leur adaptation aux conditions de vie actuelles","18 rue antonin perrin","69100","VILLEURBANNE","4.884877","45.7593"
"ASSOCIATION DE LA MAISON DE RETRAITE PROTESTANTE DETHEL","Recevoir des femmes agees valides ou convalescentes","68 avenue de la republique","69160","TASSIN-LA-DEMI-LUNE","4.777438","45.763915"
"COMITE DE LA FOIRE DE LYON","Groupe d'etudes pour toutes les questions interessant le parc d'expositions promotion de la foire de lyon","Eurexpo avenue louis bleriot","69680","CHASSIEU","4.962198","45.727986"
"ASSOCIATION AMICALE DES ANCIENS ELEVES DE L'ECOLE DE CHIMIE INDUSTRIELLE DE LYON","Perpetuer relations amicales entre les membres d'une meme promotion","43 boulevard du 11 novembre 1918","69100","VILLEURBANNE","4.872319","45.779216"
"SOCIETE DES AMIS D'ANDRE MARIE AMPERE","Perpetuer la memoire d'ampere","Musee ampere et de l'electricite","69250","POLEYMIEUX-AU-MONT-D'OR","4.796872","45.853048"
"ASSOCIATION HOSPITALIERE DE LA VILLE DE L'ARBRESLE","Gestion de l'hopital et notamment de la maternite","Bp 0116","69210","L'ARBRESLE","4.610769","45.834532"
"OEUVRE VILLEURBANNAISE DES ENFANTS A LA MONTAGNE","Assurer un sejour pendant les vacances scolaires au plus grand nombre possible d'enfants villeurbannais","Mairie","69100","VILLEURBANNE","4.890035","45.768975"
"UNION DES FEDERATIONS RHONE ALPES DE PROTECTION DE LA NATURE - UNION REGIONALE FRAPNA","Defense sauvegarde protection valorisation de l'environnement des sites des paysages des ecosystemes des milieux naturels de la faune et de la flore","19 rue jean bourgey","69100","VILLEURBANNE","4.880454","45.770435"
"ACADEMIE DE VILLEFRANCHE EN BEAUJOLAIS","Grouper les personnes qui s'interessent au passé et au présent scientifique, littéraire, artistique et économique de Villefranche et du Beaujolais.","96 rue de la Sous-Préfecture","69400","VILLEFRANCHE-SUR-SAONE","4.717221","45.988961"
"MUTUELLE INTERDIOCESAINE RHONE ET LOIRE","Mutuelle","7 chemin du pelet","69390","VERNAISON","4.813133","45.651925"
"SOCIETE DE SAUVETAGE ET DE JOUTE DE GRIGNY","Organiser des fetes nautiques et porter secours","","69520","GRIGNY","4.783866","45.606805"
"SOCIETE DE SAUVETAGE JOUTE ET NATATION DE SAINT ROMAIN EN GAL","Pratique des joutes et sauvetage nautique","Mairie","69560","SAINT-ROMAIN-EN-GAL","4.858416","45.536364"
"AMICALE 22EME 62EME BCA","Amitie et solidarite","28 avenue des sources","69130","ECULLY","4.784508","45.790779"
"AMICALE DES ANCIENS COMBATTANTS DES 134EME ET 334EME REGIMENTS D'INFANTERIEGROUPEMENT LYONNAIS","Amitie et solidarite, defense des interets des adherents","12 bis rue du mont d'or","69370","SAINT-DIDIER-AU-MONT-D'OR","4.800825","45.808802"
"AMICALE DES ANCIENS DU 5EME REGIMENT DE DRAGONS","Amitie et solidarite, defense des interets des adherents","8 allee de la scarpe","69140","RILLIEUX-LA-PAPE","4.889951","45.825182"
"AMICALE DU 19EME GROUPE DE RECONNAISSANCE DE CORPS D'ARMEE (19EME GRCA)","Amitie et solidarite entre adherents","4 rue du prieure","69130","ECULLY","4.774183","45.774751"
"ASSOCIATION LES COMBATTANTS DE VERNAISON","Defense des interets des anciens combattants","Mairie","69390","VERNAISON","4.813192","45.6479"
"ASSOCIATION DES SOUS OFFICIERS DE RESERVE DU CMD DE LYON","Grouper les sous officiers de reserve de la 14eme region","9 route du mas rillier","69140","RILLIEUX-LA-PAPE","4.905564","45.823497"
"CLUB HIPPIQUE DES TOURISTES LYONNAIS","Pratique des sports equestres","En morandin","69930","SAINT-LAURENT-DE-CHAMOUSSET","4.482227","45.735412"
"LA JEANNE D'ARC DE CALUIRE","Pratique des sports par les élèves","85 rue Jean Moulin","69300","CALUIRE-ET-CUIRE","4.849908","45.801819"
"ASSOCIATION LA JEUNE FRANCE SOCIETE DE GYMNASTIQUE ET D'EDUCATION PHYSIQUE","Pratique de la gymnastique","Maison berthy albretch","69100","VILLEURBANNE","4.877229","45.755879"
"ASSOCIATION SPORTIVE DE L'UNITE DE FORMATION ET DE RECHERCHE EN SCIENCES ET TECHNIQUESDES ACTIVITES PHYSIQUES ET SPORTIVES (AS UFRSTAPS)","Promouvoir la pratique sportive pour les étudiants et les enseignants de l'établissement et les personnes physiquement handicapés","27 29 boulevard du 11 novembre 1918","69100","VILLEURBANNE","4.862895","45.779471"
"ASSOCIATION SPORTIVE DE LA FACULTE DES SCIENCES DE LYON","Favoriser et organiser la pratique des sports de competition pour les etudiants de la faculte.","43 boulevard du 11 novembre 1918","69100","VILLEURBANNE","4.872319","45.779216"
"LIGUE SPORTIVE DES SOURDS RHONE ALPES BOURGOGNE AUVERGNE (LSSRABA)","Organiser developper controler la pratique du sport. s'affilier et coopérer avec les autres organisations régionales : comité régional olympique et sportif du rhone-alpes, bourgogne, auvergne (cros) et les comités régionaux des fédérations sportivesnationales en convention avec la FSSF.","Parc tolstoi","69100","VILLEURBANNE","4.879902","45.761948"
"ASSOCIATION SPORTIVE DES ELEVES DE L'ECOLE CENTRALE LYONNAISE","Pratique des sports par les eleves","36 route de dardilly","69130","ECULLY","4.7669","45.765581"
"ASSOCIATION D'EDUCATION POPULAIRE DU PENSIONNAT DES AQUEDUCS","Gestion du pensionnat de la croix pivort","9 rue jules chausse","69630","CHAPONOST","4.744188","45.709124"
"ASSOCIATION COMMUNAUTAIRE DE LA COOPERATIVE NOUVELLE D'ELECTRICITE","Mesures sociales en faveur du personnel","37 Rue Francine Fromont","69120","VAULX-EN-VELIN","4.941228","45.781252"
"ASSOCIATION NEIGE ET ROC","Pratique du ski","25 rue frederic mistral","69300","CALUIRE-ET-CUIRE","4.838372","45.794694"
"ASSOCIATION D'EDUCATION POPULAIRE DE LA PAROISSE DE BRULLIOLES","Formation morale physique intellectuelle des familles chretiennes","Salle de reunions","69690","BRULLIOLES","4.499578","45.76093"
"UNION GENERALE ARMENIENNE DE LYON DECINES","Pratique des sports et de l'éducation physique","38 avenue jean macé","69150","DECINES-CHARPIEU","4.956244","45.765706"
"CLUB CANIN RHODANIEN","Dressage de chiens","Maison des societe","69500","BRON","4.915795","45.736042"
"ASSOCIATION SPORTING CLUB MACCABI DE LYON","De pratiquer l education physique et sportive de la jeunesse","4 rue malherbe","69100","VILLEURBANNE","4.878366","45.767131"
"AMICALE DU PERSONNEL DES COURSES DE LYON VILLEURBANNE","Amitie et solidarite entre le personnel des societes de course","Hippodrome","69120","VAULX-EN-VELIN","4.921577","45.767981"
"SOCIETE MECANIQUE VILLEURBANNAISE SPORTS (SMV SPORTS)","Pratique des sports arts et loisirs","10 rue perou","69100","VILLEURBANNE","4.877936","45.776963"
"COMITE LYONNAIS DES MOUVEMENTS DE LA JEUNESSE ET D'ANIMATION POPULAIRE","Liaison entre les associations de jeunesse plein air et culture","39 rue lekanol","69100","VILLEURBANNE","4.866343","45.775192"
"CHALET DU TONKIN","Créer, diriger et developper les loisirs des familles adhérentes","174 rue du 8 mai 1945","69100","VILLEURBANNE","4.895745","45.770484"
"ASSOCIATION DEPARTEMENTALE DU RHONE DES ADHERENTS DU GROUPEMENT DES CAMPEURS UNIVERSITAIRESDE FRANCE","Recensement des terrains de camping, location de materiel","5 rue des tamaris","69360","SOLAIZE","4.847582","45.648888"
"MODELE YACHT CLUB LYONNAIS","Grouper les amateurs de modeles reduits de bateaux","25 rue louis michel","69100","VILLEURBANNE","4.895033","45.774394"
"LIGUE DE VOILE RHONE ALPES","Charge d'assurer les meilleures relations entre la ffv et les membres affilies de la region","7 rue du chateau","69110","SAINTE-FOY-LES-LYON","4.804576","45.736734"
"L' HARMONIE DE LIMONEST ET SON ECOLE DE MUSIQUE","L'association a pour objet l'apprentissage et la pratique de la musique","43 route de Saint Didier","69760","LIMONEST","4.775637","45.83198"
"HARMONIE DE SAINT CYR AU MONT D'OR","Enseignement musical","10 bis rue jean et catherine reynier","69450","SAINT-CYR-AU-MONT-D'OR","4.818044","45.815871"
"AMICALE DES TAMBOURS ET CLAIRONS DE SAINT FONS","Participer aux oeuvres de bienfaisance de la commune","21 rue carnot","69190","SAINT-FONS","4.857348","45.708192"
"ASSOCIATION D'ENSEIGNEMENT AGRICOLE ET DE FORMATION PROFESSIONNELLE RURALE SANDAR","Education et enseignement a caractere agricole","Chateau de Sandar","69760","LIMONEST","4.767329","45.832412"
"GROUPEMENT DES ENTREPRENEURS DE CARRELAGES MOSAIQUES ET REVETEMENT DE LA REGION RHONE ALPES","Solidarite entre professionnels","","69100","VILLEURBANNE","4.890035","45.768975"
"ASSOCIATION TECHNIQUE DU GENIE CLIMATIQUE RHONE ALPES","Etude des questions economique technique des entreprises","23 avenue condorcet","69100","VILLEURBANNE","4.867602","45.776631"
"ASSOCIATION REGIONALE MINES NEGOCE CENTRE SUD EST","Defense de la profession, etude du marche charbonnier de la region","23 rue jules valles","69100","VILLEURBANNE","4.864838","45.768896"
"ASSOCIATION DES AMIS DE LA FERRANDIERE","Organisation de loisirs et vacances pour ses adherents","34 rue richelieu","69100","VILLEURBANNE","4.87711","45.759738"
"SPORTING CLUB SAINT CLAIR CALUIRE","Pratique des sports","3 rue plessel","69300","CALUIRE-ET-CUIRE","4.837721","45.791914"
"SPORTING CLUB DE CHARBONNIERES","Pratique du tennis","Casino","69260","CHARBONNIERES-LES-BAINS","4.7332","45.786532"
"CLUB SPORTIF OUVRIER VILLEURBANNAIS","Pratique des sports","54 cours emile zola","69100","VILLEURBANNE","4.867722","45.770818"
"ASSOCIATION SPORTIVE SAINT SYMPHORIEN SUR COISE","Pratiquer l'education physique et les sports","Place de Terreaux","69590","SAINT-SYMPHORIEN-SUR-COISE","4.456647","45.632185"
"ETOILE SPORTIVE DE VAULX VELIN","Societe de chasse de duree illimitee","Mairie","69270","FONTAINES-SAINT-MARTIN","4.852177","45.843177"
"SOCIETE AMICALE DES SPORTS ET CHASSE D'ECHALAS","Organisation de la chasse","Foyer rural","69700","ECHALAS","4.699184","45.540093"
"ENTENTE SPORTIVE DE CHARLY","Groupement des differentes associations sportives sur la commune et a ce titre oeuvre a la promotion du sport a l'echelon local","Salle de reunion- mairie","69390","CHARLY","4.794519","45.649387"
"FOOTBALL CLUB SIGMA","Pratique des sports","41 47 boulevard marcel sembat","69200","VENISSIEUX","4.878583","45.714043"
"MECA SPORTS","Pratique de l'athletisme natation basket et boules","37 rue colin","69100","VILLEURBANNE","4.874223","45.773676"
"LA JEUNESSE MORNANTAISE","Pratique des sports","Rue puits de la forge","69440","MORNANT","4.671326","45.617973"
"ASSOCIATION SPORTIVE BALL CLUB (ASBC)","Pratique des sports","93 rue du 4 aout","69100","VILLEURBANNE","4.883892","45.764829"
"FIDESIENNE AMICALE SPORTIVE","Pratique des sports","16 allee alban vistel","69110","SAINTE-FOY-LES-LYON","4.78925","45.733617"
"GROUPE SPORTIF BELLEGARDIEN","Pratique des sports par les eleves","College de bellegarde","69250","NEUVILLE-SUR-SAONE","4.842917","45.869857"
"ASSOCIATION SPORTIVE DU LEP BATIMENT BRON","Pratique des sports au lycee","235 boulevard pinel","69500","BRON","4.88713","45.726729"
"ASSOCIATION SPORTIVE DU LP HELENE BOUCHER","Pratique des sports par les eleves","18 rue Rosenberg","69200","VENISSIEUX","4.890852","45.698211"
"UNION SPORTIVE DE TALUYERS","Pratique de l'athletisme","Mairie","69440","TALUYERS","4.718463","45.640271"
"ASSOCIATION SPORTIVE DE LA PEROLLIERE","Pratique des sports par les eleves","La perolliere","69210","SAINT-PIERRE-LA-PALUD","4.602064","45.803291"
"OLYMPIQUE DES GRATTE CIEL VILLEURBANNAIS","Pratique des sports et loisirs par les jeunes","14 rue du progres","69100","VILLEURBANNE","4.894201","45.763351"
"ETOILE DE SAINT GENIS LAVAL","Pratique des sports","55 avenue Georges Clémenceau","69230","SAINT-GENIS-LAVAL","4.79428","45.696976"
"LA TREILLE VOURLOISE","Pratique des sports","Cafe loos","69390","VOURLES","4.778167","45.658872"
"ASSOCIATION SPORTIVE ASSOCIATION SPORTIVE DU CET DE GIVORS","Pratique des sports par les eleves","7 avenue danielle casanova","69700","GIVORS","4.76644","45.594047"
"SOCIETE SPORTIVE DES MONTS D'OR","Pratique des sports","Mairie","69370","SAINT-DIDIER-AU-MONT-D'OR","4.797937","45.81068"
"ASSOCIATION SPORTIVE ECULLOISE","Pratique des sports","Mairie","69130","ECULLY","4.792558","45.773679"
"CLUB OLYMPIQUE RENAULT","Pratique des sports","364 route de vienne","69200","VENISSIEUX","4.854377","45.718486"
"GERSPORT CLUB","Pratique des sports","50 cours de la republique","69100","VILLEURBANNE","4.873838","45.766429"
"L'INDUSTRIELLE HARMONIE DE SAINT FONS","L'enseignement de l'art musical et l'étude de la musique d'ensemble","4 avenue Albert Thomas","69190","SAINT-FONS","4.858864","45.707629"
"GROUPEMENT INTERCOMMUNAL DES SOCIETES MUSICALES DU SUD LYONNAIS","Defense des interets des societes adherentes, organiser des","Mairie","69310","PIERRE-BENITE","4.819773","45.701814"
"L'ECHO DE CHASSELAY SOCIETE INSTRUMENTALE","Education musicale populaire.","Mairie","69380","CHASSELAY","4.763756","45.87592"
"LES ECHOS DU VAL D'AZERGUES","Execution de la musique instrumentale","","69380","MARCILLY-D'AZERGUES","4.727699","45.864902"
"COMITE D'INTERET LOCAL DES ESSARTS","Defendre les interets generaux des quartiers","Boulevard des promenades","69500","BRON","4.890938","45.736745"
"COMITE DE DEFENSE DES INTERETS COMMUNS DU PONT D'ALAI","Gestion d'une garderie d'enfants","Cafe fayolle 14 avenue charles de gaulle","69160","TASSIN-LA-DEMI-LUNE","4.773751","45.757285"
"GROUPE D'ENTRAIDE DE L'ENTREPRISE REXROTH SIGMA","Favoriser le developpement moral de ses membres","91 boulevard irene joliot curie","69200","VENISSIEUX","4.881244","45.712199"
"GROUPEMENT D'ENTRAIDE LAURENT MATHERON","Venir en aide a ses adherents dans la gene","124 avenue charles de gaulle","69160","TASSIN-LA-DEMI-LUNE","4.775651","45.759216"
"SERVICE INTERENTREPRISE DE MEDECINE DU TRAVAIL DE CROIX LUIZET","Creer, developper et gerer un service medical interentreprise","39 a rue du 8 mai 1945","69100","VILLEURBANNE","4.892486","45.779348"
"SYNDICAT D'INITIATIVE DE LA REGION DE MORNANT","Etudier et realiser les mesures tendant a accroitre l'activite touristique","Mairie","69440","MORNANT","4.670926","45.619337"
"COMITE INTERPROFESSIONNEL POUR L'EXERCICE DE LA MEDECINE DU TRAVAIL CANTON DE SAINT SYMPHORIEN SUR COISE","Organiser et gerer le service interentreprises de medecine du","40 avenue de la liberation","69590","SAINT-SYMPHORIEN-SUR-COISE","4.457614","45.632797"
"ASSOCIATION PARITAIRE FIDESIENNE INTERENTREPRISES DES SERVICES MEDICAUX DUTRAVAIL (APFMT)","Creer, organiser, developper les services medicaux du travail","Grande tuilerie du rhone","69610","SAINTE-FOY-L'ARGENTIERE","4.471371","45.703579"
"AMICALE INTER CLASSES DE RILLIEUX LA PAPE","Organisation et animation de la fete patronale de st denis","Cafe de la bascule","69140","RILLIEUX-LA-PAPE","4.898591","45.821314"
"ASSOCIATION DU FORT DE BRON","Promouvoir l'amenagement d'un parc de loisir sur le site de l'an","Maison des societes","69500","BRON","4.915795","45.736042"
"VELO CLUB DE SAINT FONS","Pratique du cyclisme","60 rue carnot","69190","SAINT-FONS","4.863345","45.707894"
"VELO CLUB DE LA SAONE","Pratique du cyclisme","Salle des societes 34 rue pierre carbon","69270","FONTAINES-SUR-SAONE","4.847586","45.833761"
"CLUB LYONNAIS DES AMIS DU VELO","Pratique du sport cycliste","Vap n°15","69100","VILLEURBANNE","4.890035","45.768975"
"TENNIS CLUB DE LYON","Pratique du tennis","2 boulevard du 11 novembre","69100","VILLEURBANNE","4.864823","45.778922"
"TENNIS CLUB DE LA DEMI LUNE","Pratique du tennis","Chemin vert","69160","TASSIN-LA-DEMI-LUNE","4.780706","45.761472"
"AMICALE DES ANCIENS RUGBYMENS DU LYONNAIS","Pratique du rugby","80 rue des fontanieres","69100","VILLEURBANNE","4.88388","45.772874"
"ASSOCIATION DE PREVOYANCE DES SECRETAIRES DE POLICE D'ETAT DE LYON","Entretenir des relations amicales et resserrer les liens de solidarite entre ses membres","44 rue Gambetta","69270","FONTAINES-SUR-SAONE","4.845864","45.835199"
"ASSOCIATION DE PREVOYANCE INTERPROFESSIONNELLE DES CADRES ET INGENIEURS DE LA REGION LYONNAISE","Garantir diverses prestations en cas de deces ou d'invalidite","38 rue francois pessel","69300","CALUIRE-ET-CUIRE","4.840949","45.795042"
"SOCIETE CORPORATIVE D'ENTRAIDE SOCIALE DE LA SOCIETE L'EBENOID A","Aide morale, sociale, materielle a ses membres","8 rue des fleurs","69100","VILLEURBANNE","4.895256","45.754623"
"UNION DES RETRAITES DES ORGANISMES SOCIAUX REGION RHONE ALPES","Defense des interets des beneficiaires du regime de prevoyance TRANSFERE en 2003 dans l'AIN","68 rue anatole france","69100","VILLEURBANNE","4.875301","45.767434"
"UNION DES SOCIETES PHILATELIQUES DE LYON ET DE LA REGION","Etude et défense des intérêts communs","16 allée des Camélias","69120","VAULX-EN-VELIN","4.931439","45.754311"
"GROUPEMENT ARTISTIQUE DE TASSIN","Promouvoir l'education populaire par l'organisation de seances cinematographiques","62 avenue du 8 mai 1945","69160","TASSIN-LA-DEMI-LUNE","4.761289","45.76102"
"UNION ARTISTIQUE DES CHEMINOTS FRANCAIS GROUPE DE BADAN","Pratique de la danse par les cheminots et leurs familles","1 rue francois aynard","69520","GRIGNY","4.777118","45.60187"
"OFFICE REGIONAL DES OEUVRES LAIQUES D'EDUCATION PAR L'IMAGE ET PAR LE SON","Culture cinematographique dans les milieux scolaires","36 avenue general de gaulle","69300","CALUIRE-ET-CUIRE","4.852942","45.804582"
"UNION ARTISTIQUE ET INTELLECTUELLE DES CHEMINOTS FRANCAIS DE VENISSIEUX","Etude et pratique d'activites artistiques","75 rue gabriel peri","69200","VENISSIEUX","4.873129","45.703971"
"SOCIETE DE NEURO PSYCHIATRIE MEDICO SOCIALE DE LA REGION LYONNAISE","Etude des problemes de la neuro psychiatrie et de l'hygiene","59 boulevard pinel","69500","BRON","4.897201","45.74789"
"LES AMIS D'ALBERT GLEIZES","Preserver l'esprit de l'oeuvre et enseignement d'albert gleizes","","69420","AMPUIS","4.805156","45.501341"
"ASSOCIATION DES SYRIAQUES DE LYON","Reunir les syriaques de lyon dans un but culturel social et religieux","12 chemin de la godille","69120","VAULX-EN-VELIN","4.916686","45.782679"
"SPELEO CLUB DE LYON","Pratique des sports de plein air et speleologie","20 rue de la republique","69270","COUZON-AU-MONT-D'OR","4.831427","45.844726"
"CINE CLUB DE L'ARBRESLE","Utiliser le cinema comme moyen d'education et de culture","20 rue de paris","69210","L'ARBRESLE","4.615927","45.83757"
"CENTRE DE RECHERCHES ET D'ETUDES D'ANIMATIONS CULTURELLES COMMISSIONCULTURELLE DE VILLEURBANNE","Montrer en permanence des attitudes nouvelles","234 cours emile zola","69100","VILLEURBANNE","4.887866","45.767893"
"CENTRE LYONNAIS D'AMITIES FRANCO BRITANNIQUES","Echanges culturels avec des ressortissants de langue anglaise","May morning","69250","POLEYMIEUX-AU-MONT-D'OR","4.801015","45.857123"
"TROUPE THEATRALE DE VARIETES L'EQUIPE","Realiser des spectacles theatraux et fantaisistes","20 rue jean baptiste clement","69100","VILLEURBANNE","4.880238","45.781932"
"CINEMA EDUCATION DOCUMENTAIRE L'ECRAN LIBRE","Education par le cinema","1 rue simon","69110","SAINTE-FOY-LES-LYON","4.780399","45.746297"
"LIGUE DES MUTILES ET INVALIDES DE LA GUERRE D'ESPAGNE 1936 1939 EN FRANCE COMITE RHONE ALPES","Information et orientation des mutiles de la guerre d espagne","2 rue de la prevoyance","69100","VILLEURBANNE","4.887573","45.772738"
"JDB ALPI LOISIRS","Favoriser par tous moyens (voyages reunons etc)les rencontres","18 rue dedieu","69100","VILLEURBANNE","4.86425","45.769299"
"ASSOCIATION D'EDUCATION POPULAIRE D'AVEIZE","Organiser le fonctionnement materiel des ecoles catholiques","","69610","AVEIZE","4.470422","45.676345"
"VACANCES ET PLEIN AIR","Procurer des distractions aux enfants du quartier de la plaine","107 rue du commandant charcot","69110","SAINTE-FOY-LES-LYON","4.788073","45.746307"
"CITE PAROISSIALE DE VERNAISON","Entretenir un centre de vie sociale et spirituelle","180 route de charly","69390","VERNAISON","4.810881","45.647435"
"ORGANISME DE GESTION DE L'ENSEIGNEMENT CATHOLIQUE (OGEC) DE L'ECOLE SAINT MARTIN","Education catholique des enfants de la paroisse","Rue du gappas","69210","SAVIGNY","4.574441","45.814472"
"ASSOCIATION INTERNATIONALE D'IRRADIATION INDUSTRIELLE","Collaboration internationale entre ses membbres dans le domaine economique et professionnel pour promouvoir l emploi des radiations ionisantes","59 route de paris","69260","CHARBONNIERES-LES-BAINS","4.750189","45.782751"
"ASSOCIATION NOTRE DAME DU GRAND PORT LA FAMILIALE","Accueillir et hospitaliser de jeunes meres de famille","11 rue de la mairie","69660","COLLONGES-AU-MONT-D'OR","4.84069","45.820149"
"ASSOCIATION D'EDUCATION POPULAIRE DE CHAMBOST LONGESSAIGNE","Organiser le fonctionnement materiel de l'ecole maternelle et de","","69770","CHAMBOST-LONGESSAIGNE","4.37958","45.774202"
"ORGANISME DE GESTION DE L'ECOLE SAINT ROCH DE CHARBONNIERES LES BAINS","Gestion de l'ecole privee de filles de charbonnieres les bains","Ecole saint roch","69260","CHARBONNIERES-LES-BAINS","4.745133","45.778545"
"ASSOCIATION D'EDUCATION POPULAIRE DES BUERS","Favoriser les oeuvres d'education destinees a l'enfance et a la","34 rue du 8 mai 1945","69100","VILLEURBANNE","4.891391","45.780478"
"ASSOCIATION D'EDUCATION POPULAIRE DE L'ECOLE D'ENSEIGNEMENT SPECIALISEE LACLAIRIERE","Enseignement pour les enfants ayant des difficultes a suivre un","206 avenue roger salengro","69100","VILLEURBANNE","4.879686","45.778607"
"ORGANISME DE GESTION ECOLE CATHOLIQUE SAINTE MARIE","Gestion de l'etablissement scolaire","9 rue du moulin blanc","69610","SAINTE-FOY-L'ARGENTIERE","4.473521","45.707599"
"ASSOCIATION SCOLAIRE DU LAUD","Gestion et administration du college prive catholique du laud","6 chemin du laud","69440","MORNANT","4.676749","45.619395"
"ORGANISME DE GESTION ECOLE CATHOLIQUE (OGEC) DE HAUTE RIVOIRE","Assuer la gestion et l'entretien de l'etablissement scolaire","Route de Meys","69610","HAUTE-RIVOIRE","4.39497","45.713743"
"AMICALE LAIQUE DE VENISSIEUX PARILLY","Activites culturelles artistiques sportives pour les enfants","8 avenue Jules Guesde","69200","VENISSIEUX","4.8873","45.71747"
"ASSOCIATION SPORTIVE ET RECREATIVE DES PORTUGAIS DE LIMONEST","Favoriser les activites sportives et recreatives","47 place Decurel","69760","LIMONEST","4.771652","45.835891"
"ORGANISME DE GESTION D'ENSEIGNEMENT CATHOLIQUE DE CRAPONNE","Creation entretien developpement d'oeuvres d'education populaire","15 rue centrale","69290","CRAPONNE","4.725365","45.745856"
"PATRONAGE SCOLAIRE LAIQUE DE CHATEAU GAILLARD ET DES BUERS","Prevention de la delinquance","243 cours emile zola","69100","VILLEURBANNE","4.888325","45.767718"
"SOU DES ECOLES LAIQUES DE LA COTE","Defense des interets des ecoles laiques de la cote","Ecole pablo neruda","69120","VAULX-EN-VELIN","4.918523","45.774785"
"ASSOCIATION DU SOU DES ECOLES LAIQUES DU PONT DES PLANCHES DE VAULX EN VELIN","Ameliorer le quotidien des enfants en organisant diverses manifestations culturelles et ludiques afin de recueillir des fonds qui seront reverses aux ecoles maternelles et primaires frederic mistral pour l'achat de materiel de jeux pour des sorties","Groupe scolaire frederic mistral","69120","VAULX-EN-VELIN","4.930468","45.749859"
"UNION DES OEUVRES LAIQUES DES CANTONS DE VAUGNERAY ET TASSIN LA DEMILUNE","Coordonner l'action des oeuvres ou societes laiques des 2 cantons","Mairie","69670","VAUGNERAY","4.658026","45.737896"
"CANTINE COMMUNALE DE SAINT LAURENT DE CHAMOUSSET","Assurer le repas aux eleves frequentant les ecoles","Mairie","69930","SAINT-LAURENT-DE-CHAMOUSSET","4.466964","45.739449"
"SOU DES ECOLES LAIQUES DE POLLIONNAY","Encourager les élèves des écoles","Mairie","69290","POLLIONNAY","4.661591","45.765756"
"AMICALE LAIQUE DE CIVRIEUX D'AZERGUES","Encourager la frequentation des ecoles laiques","Ecole publique","69380","CIVRIEUX-D'AZERGUES","4.711899","45.860684"
"OEUVRE MUNICIPALE DES CENTRES DE VACANCES ET DES LOISIRS DE VAULX ENVELIN","Faciliter l'envoi d'enfants dans les centres de vacances","Mairie","69120","VAULX-EN-VELIN","4.925453","45.786896"
"ASSOCIATION D'EDUCATION POPULAIRE DU QUARTIER CHATEAU GAILLARD","Organiser des loisirs educatifs (conferences, bibliotheques, etc )","229 rue francis de pressense","69100","VILLEURBANNE","4.890278","45.769848"
"CANTINE SCOLAIRE LAIQUE DE L'ECOLE PUBLIQUE DE SAINT GENISL'ARGENTIERE","Organiser et assurer le service du repas de midi","","69610","SAINT-GENIS-L'ARGENTIERE","4.48984","45.71104"
"CANTINE SCOLAIRE DE L'ECOLE PUBLIQUE DE BRUSSIEU","Organiser et assurer le repas de midi aux eleves","Ecole publique enfantine","69690","BRUSSIEU","4.5252","45.74861"
"CHAMBRE CHAMBRE D'APPRENTISSAGE DES INDUSTRIES DU BATIMENT DES TRAVAUX PUBLICS ETDES INDUSTRIES CONNEXES DU DEPARTEMENT DU RHONE","Favoriser les formations professionnelles","23 avenue condorcet","69100","VILLEURBANNE","4.867602","45.776631"
"LES AMIS DE LA MAISON FAMILIALE DES MEMBRES DE L'ENSEIGNEMENT PUBLIC DEL'ACADEMIE DE LYON","Accueillir des membres de l'enseignement public retraites","125 rue pierre brunier","69300","CALUIRE-ET-CUIRE","4.836835","45.791884"
"OEUVRE LAIQUE DES ENFANTS A LA MONTAGNE","Faciliter l'envoi d'enfants a la montagne","27 rue diderot","69600","OULLINS","4.80909","45.713192"
"RAYON DE SOLEIL DE L'ENFANCE FOYER PLEIN SOLEIL","Aide aux enfants abandonnes orphelins ou en danger moral","Avenue des avoraux","69250","ALBIGNY-SUR-SAONE","4.829637","45.871561"
"ASSOCIATION LA FAMILLE ADOPTIVE CHRETIENNE","Donner un pere et une mere aux enfants orphelins ou abandonnes","86 route de paris","69160","TASSIN-LA-DEMI-LUNE","4.758784","45.76893"
"ASSOCIATION MARIE SOUCHON","Gestion de colonies de vacances et maison de repos","64, boulevard du 11 novembre 1918","69100","VILLEURBANNE","4.865985","45.77872"
"RESPECT DE L'ENFANT","Protection des enfants","51 rue parmentier","69190","SAINT-FONS","4.862553","45.705734"
"COMITE LAIC DU CINEMA SCOLAIRE ET EDUCATEUR D'OULLINS","Organiser des seances de cinema educateur","7 rue orsel","69600","OULLINS","4.810701","45.716431"
"ASSOCIATION DES VIOLETTES","Accueil de personnes agees dans des immeubles lui appartenant","10 avenue edouard payen","69130","ECULLY","4.776788","45.775242"
"ASSOCIATION SAINT LAURENT","Aide au developpement de la vie religieuse dans la paroisse","Salle Saint-Laurent","69440","SAINT-LAURENT-D'AGNY","4.679242","45.642526"
"LA JOIE DE NOS BAMBINS","Donner aux tout petits une vie agreable saine active","Ecole maternelle","69300","CALUIRE-ET-CUIRE","4.845576","45.794047"
"MAISON SAINT JOSEPH","But spirituel, culturel, social.","161 chemin des fonds","69110","SAINTE-FOY-LES-LYON","4.791641","45.741041"
"ASSOCIATION DES MAMANS ECOLE MATERNELLE JACQUES PREVERT","Collaboration parents enseignants pour le bien etre des enfants","Ecole maternelle","69160","TASSIN-LA-DEMI-LUNE","4.76964","45.761674"
"L'ENTRAIDE CHAMPENOISE","Aide sous toute forme, coordonner les activites d'entraide","9, rue Pasteur","69410","CHAMPAGNE-AU-MONT-D'OR","4.788995","45.796074"
"ASSOCIATION DE LA MAISON FAMILIALE RURALE D'EDUCATION ET D'ORIENTATION DE LESHALLES","Education orientation apprentissage des jeunes ruraux","","69610","LES-HALLES","4.434675","45.718858"
"CENTRE SOCIO CULTUREL LA GRAVIERE DE BEAUNANT","Coordination entre les societes locales et leurs activites","18 avenue de limburg","69110","SAINTE-FOY-LES-LYON","4.779428","45.733156"
"TOUS MISSIONNAIRES ASSOCIATION DE PROPAGANDE ET D'ENTRAIDEMISSIONNAIRES","Faire connaitre au public l'oeuvre des missions catholiques,","41 chemin du signal","69110","SAINTE-FOY-LES-LYON","4.80669","45.734143"
"CLUB DE L'EAU VIVE","Ameliorer le sort des vieilles personnes","HLM Le bourg Place Bad Abbach","69260","CHARBONNIERES-LES-BAINS","4.744923","45.778711"
"ASSOCIATION DES AMIES DE SAINTE CLAIRE","Creer un foyer de prieres ; assurer un asile aux femmes pieuses","Lieu dit montcelard","69160","TASSIN-LA-DEMI-LUNE","4.75168","45.769298"
"MARIE DOMINIQUE","Education et action sociale aupres des enfants et leurs familles","86 chemin du razat","69390","VERNAISON","4.814392","45.656159"
"ASSOCIATION DES MAMANS ET DES AMIS DE L'ECOLE MATERNELLE AMBROISE CROIZAT","Collaboration parents enseignants pour le bien etre des enfants","Ecole maternelle croizat","69120","VAULX-EN-VELIN","4.930555","45.756384"
"FOYER COMMUNAUTAIRE DE VACANCES","Apprentissage de la co gestion de secteur particulier d'activites","Les hautannes","69650","SAINT-GERMAIN-AU-MONT-D'OR","4.800022","45.880597"
"COMITE DES FETES DE LA COMMUNE D'OULLINS","Etablissement du calendrier annuel des differentes manifestations locales et leur coordination avec le service communication de la maire etc","1 rue etienne dolet","69600","OULLINS","4.806976","45.713842"
"ASSOCIATION JELZAMA","Centre d'accueil feminin","6 allée des Maraichers","69540","IRIGNY","4.825658","45.687201"
"FOYER DES JEUNES DE LA GIRAUDIERE","Organisation des loisirs et vacances","La giraudiere","69690","BRUSSIEU","4.542811","45.749112"
"COMITE DES FETES DE LA MULATIERE","Aide aux personnes agees","Mairie","69350","LA-MULATIERE","4.810694","45.733604"
"ECOLE DE MUSIQUE ALAEO","Organiser des groupes a activites educatives","5 -7 rue Ampère","69600","OULLINS","4.812722","45.708136"
"AMICALE LAIQUE DE VERNAISON","Grouper les anciens eleves et amis de l'ecole laique","Mairie","69390","VERNAISON","4.813192","45.6479"
"RYTHME ET PARADE","Artistique chant danse et comedie","42 bis rue colin","69100","VILLEURBANNE","4.874237","45.774186"
"SOCIETE DES CHASSEURS DE CHASSELAY","Chasse","Mairie de chasselay","69380","CHASSELAY","4.780349","45.883268"
"ASSOCIATION LECESTRE BONTOUX","Liens amicaux entre eleves et anciens eleves, defense de leurs","257 route des condamines","69390","CHARLY","4.798475","45.649525"
"ASSOCIATION D'EDUCATION POPULAIRE DE SAINT SYMPHORIEN SUR COISE","Organiser le fonctionnement materiel des ecoles de st symphorien","18 rue Chanoine Pavailler","69590","SAINT-SYMPHORIEN-SUR-COISE","4.452924","45.629589"
"ASSOCIATION D'EDUCATION POPULAIRE DE SAINTE FOY LES LYON","Gestion d'institutions d'education et enseignement a principes mo","33 boulevard baron du marais","69110","SAINTE-FOY-LES-LYON","4.804123","45.734367"
"ORGANISME GESTION ECOLES CATHOLIQUES DE DUERNE","Gestion des institutions","","69850","DUERNE","4.526905","45.678088"
"ASSOCIATION D'EDUCATION POPULAIRE DE LA PAROISSE DE NEUVILLE SUR SAONE","Developpement d'oeuvres d'education populaire","","69250","NEUVILLE-SUR-SAONE","4.838026","45.878996"
"ORGANISME DE GESTION ECOLE CATHOLIQUE DE SAINT DIDIER SOUS RIVERIE","Assurer l'entretien et la gestion de l'école catholique privée","Ecole privée mixte","69440","SAINT-DIDIER-SOUS-RIVERIE","4.611868","45.608423"
"ASSOCIATION DES FAMILLES DE SAINT CLAIR POUR LES ECOLES PRIMAIRES LIBRES","Organiser le fonctionnement de l'ecole du petit versailles et","5 montee du petit versailles","69300","CALUIRE-ET-CUIRE","4.851668","45.789176"
"ASSOCIATION DES FAMILLES DE LA VALLE DE BEAUNANT","Developper la vie sociale et les forces morales dans les communes","Foyer de beaunant","69230","SAINT-GENIS-LAVAL","4.778961","45.708964"
"ASSOCIATION DE GESTION DE L'ECOLE CATHOLIQUE DE LA MULATIERE","Gestion d'institutions d'education et enseignement a principes mo","Rue clement mulat","69350","LA-MULATIERE","4.813556","45.72771"
"ASSOCIATION DE L'ECOLE NOUVELLE D'ECULLY","Organiser le fonctionnement de l'ecole","32 bis rue jean marie vianney","69130","ECULLY","4.772678","45.79324"
"ASSOCIATION DES FAMILLES DE GREZIEU LA VARENNE","Etude et defense des interets generaux des familles creer animer et gerer tout service d entraide et d activites educative culturelle sportive","Mairie","69290","GREZIEU-LA-VARENNE","4.68504","45.748732"
"ASSOCIATION DES FAMILLES DE CHARLY","Etude et defense des interets generaux des familles","Salle des reunions","69390","CHARLY","4.796176","45.638209"
"ASSOCIATION DES FAMILLES DE DARDILLY","Etude et défense des intérets généraux des familles","Mairie","69570","DARDILLY","4.753614","45.805818"
"ASSOCIATION DES FAMILLES DE GIVORS","Etude et defense des interets generaux des familles","Mairie","69700","GIVORS","4.771636","45.582528"
"ASSOCIATION DES FAMILLES DE LARAJASSE","Etude et défense des intérêts généraux des familles","Maison Pélisson","69590","LARAJASSE","4.505579","45.61167"
"ASSOCIATION DES FAMILLES DE BULLY","Etude et defense des interets generaux des familles","Mairie","69210","BULLY","4.583705","45.852356"
"ASSOCIATION DES FAMILLES DE BRUSSIEU","Etude et defense des interets generaux des familles","Mairie","69690","BRUSSIEU","4.524912","45.747675"
"ASSOCIATION DES FAMILLES RURALES DE MONTROMAND","Agir pour et avec les familles pur le bien etre de tous","Mairie","69610","MONTROMANT","4.535203","45.713226"
"ASSOCIATION DES FAMILLES DE SAINTE FOY LES LYON","Etude et defense des interets generaux des familles","Mairie","69110","SAINTE-FOY-LES-LYON","4.79394","45.736615"
"ASSOCIATION DES FAMILLES DE VERNAISON","Etudier et defendre les interets des familles, specialement des","Mairie","69390","VERNAISON","4.813192","45.6479"
"ASSOCIATION DES FAMILLES DE BESSENAY","Etude et defense des interets generaux des familles","Mairie","69690","BESSENAY","4.553907","45.77674"
"ASSOCIATION DES FAMILLES DE MONTROTTIER","Etudier et defendre les interets generaux des familles","Salle des reunions","69770","MONTROTTIER","4.466169","45.790429"
"ASSOCIATION DES FAMILLES DE CHAMBOST SUR LONGESSAIGNE","Etude et defense des interets generaux des familles","Mairie","69770","CHAMBOST-LONGESSAIGNE","4.37958","45.774202"
"ASSOCIATION DES FAMILLES DE DOMMARTIN","Etude et defense des interets generaux des familles","Mairie","69380","DOMMARTIN","4.714432","45.834212"
"ASSOCIATION DES FAMILLES DE COURZIEU","Etude et defense des interets generaux des familles","Mairie","69690","COURZIEU","4.570473","45.742509"
"ASSOCIATION DES FAMILLES DE SAINT LAURENT DE CHAMOUSSET","Etude et defense des interets generaux des familles","Mairie","69930","SAINT-LAURENT-DE-CHAMOUSSET","4.466964","45.739449"
"ASSOCIATION DES FAMILLES DE L'ARBRESLE","Etude et defense des interets generaux des familles","Mairie","69210","L'ARBRESLE","4.615759","45.835685"
"ASSOCIATION DES FAMILLES DE CAILLOUX SUR FONTAINES","Etude et defense des interets generaux des familles","Mairie","69270","CAILLOUX-SUR-FONTAINES","4.870181","45.849092"
"ASSOCIATION DES FAMILLES DE SAINT CYR AU MONT D'OR","Etude et defense des interets generaux des familles","Mairie","69450","SAINT-CYR-AU-MONT-D'OR","4.817002","45.815734"
"ASSOCIATION DES FAMILLES DE SAINT GENIS L'ARGENTIERE","Etude et defense des interets generaux des familles","Mairie","69610","SAINT-GENIS-L'ARGENTIERE","4.491989","45.709719"
"ASSOCIATION DES FAMILLES DE POMEYS","Etude et defense des interets generaux des familles","Mairie","69590","POMEYS","4.444685","45.647381"
"ASSOCIATION DES FAMILLES DE LES CHERES","Etudier et defendre les interets generaux des familles","Mairie","69380","LES CHERES","4.740846","45.891271"
"ASSOCIATION DES FAMILLES DE BRULLIOLES","Etudier et defendre les interets generaux des familles","Mairie","69690","BRULLIOLES","4.513653","45.755991"
"ASSOCIATION DES PARENTS D'ELEVES DE L'ECOLE DE GARCONS","Resserrer les liens d'amitie entre parents et maitres.","114 cours emile zola","69100","VILLEURBANNE","4.87402","45.770437"
"ASSOCIATION DES FAMILLES DES HALLES","Etudier et defendre les interets generaux des familles","Mairie","69610","LES-HALLES","4.434675","45.718858"
"ASSOCIATION DES PARENTS D'ELEVES DE L'ECOLE NOTRE DAME DU BON CONSEIL A OULLINS","Grouper les parents ayant des enfants inscrits a l'ecole","23 rue de la Camille","69600","OULLINS","4.801924","45.713947"
"ASSOCIATION DES PARENTS D'ELEVES DE L'ENSEIGNEMENT LIBRE DE L'ECOLE SAINT CLAUDE DE TASSIN(APEL SAINT CLAUDE)","Grouper les chefs de famille ayant la charge d'enfants inscrits","62 avenue du 8 mai 1945","69160","TASSIN-LA-DEMI-LUNE","4.761289","45.76102"
"ASSOCIATION DES PARENTS D'ELEVES DE L'ECOLE PRIVEE MIXTE JEANNE D'ARC","Grouper les chefs de famille ayant la charge d'enfants inscrits","15 rue centrale","69290","CRAPONNE","4.725365","45.745856"
"ASSOCIATION SPORTIVE LP","Pratique des sports par les eleves","64 66 rue magenta","69100","VILLEURBANNE","4.87142","45.766012"
"ASSOCIATION DES PARENTS D'ELEVES DE L'ECOLE PRIVEE DE GARCONS","Grouper les parents ayant des enfants inscrits a l'ecole","107 rue commandant charcot","69110","SAINTE-FOY-LES-LYON","4.788073","45.746307"
"ASSOCIATION DES PARENTS D'ELEVES DE L'ECOLE PRIVEE PRIMAIRE DE GARCONS","Grouper les parents ayant des enfants inscrits a l'ecole","Ecole libre mixte","69300","CALUIRE-ET-CUIRE","4.845576","45.794047"
"ASSOCIATION DES PARENTS D'ELEVES DE L'ECOLE LIBRE DE GARCONS DITE INSTITUTION AMPERE","Grouper les parents ayant des enfants inscrits a l'ecole","Institution ampere","69410","CHAMPAGNE-AU-MONT-D'OR","4.787677","45.79798"
"ASSOCIATION DES PARENTS D'ELEVES DE L'INSTITUTION SAINT JOSEPH","Accueillir rassembler informer et faire participer les parents des eleves de l'institution à la vie de celle-ci, de participer à l'élaboration des projets éducatifs que ce soit dans le cadre de la foi (catéchèse, culture religieuse). etc...","7 rue Lieutenant Audras","69160","TASSIN-LA-DEMI-LUNE","4.757984","45.760209"
"ASSOCIATION DES PARENTS D'ELEVES DE L'ECOLE LIBRE DE FILLES DE CHARBONNIERES LES BAINS","Grouper les parents ayant des enfants inscrits a l'ecole","Chemin saint roch","69260","CHARBONNIERES-LES-BAINS","4.745133","45.778545"
"ASSOCIATION DES PARENTS D'ELEVES DE L'ECOLE DE MORNANT","Grouper les chefs de famille ayant la charge d'enfants inscrits","Rue du puits de la forge","69440","MORNANT","4.671326","45.617973"
"ASSOCIATION DES PARENTS D'ELEVES DE L'ENSEIGNEMENT LIBRE DE L'ECOLE VINCENT SERRE","Grouper les parents ayant des enfants inscrits a l'ecole","13, avenue de la République","69160","TASSIN-LA-DEMI-LUNE","4.783504","45.764029"
"ASSOCIATION DES FAMILLES DE SAINT SORLIN","Etude et defense des interets generaux des familles","Mairie","69440","SAINT-SORLIN","4.637497","45.619353"
"ASSOCIATION DES FAMILLES D'IRIGNY","Etudier et defendre les interets generaux des familles speciale-","Mairie","69540","IRIGNY","4.823005","45.673499"
"ASSOCIATION DES FAMILLES DE THURINS","Etude et defense des interets generaux des familles","Mairie","69510","THURINS","4.640687","45.68311"
"ASSOCIATION DES PARENTS D'ELEVES DE L'INSTITUTION DENUZIERE","Grouper les parents ayant des enfants inscrits a l'ecole","45 rue coste","69300","CALUIRE-ET-CUIRE","4.832971","45.783894"
"CONFEDERATION SYNDICALE DU CADRE DE VIE SYNDICAT DE SAINT FONS VENISSIEUX","Grouper les familles de condition ou appartenant au milieu popu-","36 rue daniel casanova","69190","SAINT-FONS","4.862977","45.71051"
"CONSEIL DES PARENTS D'ELEVES DU LEP HELENE BOUCHER","Collaboration avec les enseignants","18 rue rosenberg","69200","VENISSIEUX","4.890852","45.698211"
"CONSEIL DES PARENTS D'ELEVES DU GROUPE SCOLAIRE JEAN JAURES","Gestion d'une garderie et d'une cantine scolaire","Place jules ferry","69300","CALUIRE-ET-CUIRE","4.832876","45.785903"
"ASSOCIATION FAMILIALE DE CALUIRE SECTION MARRONNIERS","Etude et defense des interets generaux des familles","4 rue ampere","69270","FONTAINES-SUR-SAONE","4.862992","45.823967"
"CONSEIL DE PARENTS D'ELEVES GROUPE SCOLAIRE GABRIEL PERI","Defense des interets de l'ecole laique","Rue daniel casanova","69200","VENISSIEUX","4.872781","45.703154"
"ASSOCIATION DES ANCIENS ELEVES DE L' INSTITUT DE CHIMIE ET DE PHYSIQUE INDUSTRIELLE ET DE LA FACULTE CATHOLIQUE DES SCIENCES DE LYON","O","43 boulevard du 11 novembre 1918","69100","VILLEURBANNE","4.872319","45.779216"
"AMICALE DES ANCIENS ELEVES DU LYCEE DU PAYSAGE ET DE L'ENVIRONNEMENT DE LYON","Relations amicales, echange de renseignements et d'avis","26 chemin de la bruyere","69570","DARDILLY","4.770043","45.814224"
"AMICALE DES ELEVES DE L'ECOLE SUPERIEURE DE CHIMIE INDUSTRIELLE DE LYON","Ameliorer les conditions de vie et travail des eleves","43 boulevard du 11 novembre 1918","69100","VILLEURBANNE","4.872319","45.779216"
"CORPORATION DES ELEVES DE L'ECOLE SUPERIEURE DE COMMERCE DE LYON","Etablir et promouvoir les relations amicales entre ses membres.","23 avenue guy de collongue","69130","ECULLY","4.764766","45.786682"
"AMICALE DES CHASSEURS DE LA REGION ARBRESLOISE","Chasse et repeuplement en gibiers","","69210","L'ARBRESLE","4.610769","45.834532"
"SOCIETE DE CHASSE DE FLEURIEU SUR SAONE","Repeuplement du gibier et repression du braconnage","13 rue romagnon","69250","FLEURIEU-SUR-SAONE","4.846315","45.857364"
"SOCIETE DE CHASSE D'ALBIGNY","Maintien de l'ordre de la societe. faire respecter les proprietes et les recoltes des proprietaires, la destruction des animaux nuisibles, le repeuplement en gibier, la repression du braconnage","7 place de verdun","69250","ALBIGNY-SUR-SAONE","4.831348","45.865616"
"SOCIETE DES CHASSEURS DE BIBOST","Organisation de la chasse","","69690","BIBOST","4.550309","45.79691"
"UNION DES CHASSEURS ET PROPRIETAIRES DE COURZIEU","Pratique de la chasse","","69690","COURZIEU","4.567141","45.745529"
"NOUVELLE SAINT HUBERT CLUB DE VAULX EN VELIN","Organisation de la chasse","Mairie","69120","VAULX-EN-VELIN","4.925453","45.786896"
"ASSOCIATION COMMUNALE DE CHASSE DE SAINT GENIS LES OLLIERES","Organisation de la chasse","Mairie","69290","SAINT-GENIS-LES-OLLIERES","4.726279","45.756109"
"ASSOCIATION DES CHASSEURS DE SAINT GENIS L'ARGENTIERE","Organisation de la chasse","Mairie","69610","SAINT-GENIS-L'ARGENTIERE","4.491989","45.709719"
"ASSOCIATION DE CHASSE DES PROPRIETAIRES ET FERMIERS REUNIS DE CHARNAY ET CRETPIOCHE","Organisation de la chasse","Le charnay","69930","SAINT-CLEMENT-LES-PLACES","4.401105","45.766378"
"ASSOCIATION AMICALE DES FERMIERS ET PERMISSIONNAIRES DE PECHE D'AMPUIS ASERRIERES","Defense des interets des membres participants en tant que fermiers","","69420","CONDRIEU","4.764882","45.469813"
"SOCIETE AMICALE DES CHASSEURS DE LOIRE","Organisation de la chasse","Le pacalon","69700","LOIRE-SUR-RHONE","4.79694","45.541631"
"FEDERATION FRANCAISE DES ASSOCIATIONS MARISTES","Soutenir les ecoles maristes, les associations d'anciens eleves","Le montet","69230","SAINT-GENIS-LAVAL","4.788243","45.685506"
"ASSOCIATION LIBRE DES PROPRIETAIRES DU LOTISSEMENT DE SAINT CYR VILLAGE ROUTEDE LYON","Gerer tout ce qui constitue la propriete collective du lotissement","Beauverger","69450","SAINT-CYR-AU-MONT-D'OR","4.820516","45.81054"
"ASSOCIATION DES PROPRIETAIRES DU LIEU DIT DE SAINT MARTIN DE CORNASCOMMUNE DE GIVORS","Chasse","Mairie","69700","GIVORS","4.771636","45.582528"
"ASSOCIATION D'ENTRAIDE SOCIALE ET CHARITABLE DE BRON","Entraide et bienfaisance au profit des personnes agees, infirmes,","31 rue de verdun","69500","BRON","4.908315","45.736281"
"INSTITUT COMMERCIAL LYONNAIS","Formation et instruction professionnelle post scolaire des jeunes","15 rue jules valles","69100","VILLEURBANNE","4.864566","45.769663"
"ASSOCIATION NOTRE DAME DE LA PRESENTATION","Aider ses membres a poursuivre leurs etudes ou a parfaire leur","153 boulevardd pinel","69500","BRON","4.890938","45.736745"
"AMICALE DES ALSACIENS ET DES LORRAINS DE LYON ET DE LA REGION","Diffusion du folklore alsacien et lorrain","45 b. rue de margnolles","69300","CALUIRE-ET-CUIRE","4.83991","45.786239"
"SOCIETE DES CHASSEURS REUNIS POUR LE REPEUPLEMENT DU GIBIER A GRIGNY","Le repeuplement du gibier sur le territoire de la commune.","","69520","GRIGNY","4.783866","45.606805"
"L'ART ET LA VIE","Education populaire, echange culturel, eveil a la culture, a l'art","La sabliere","69760","LIMONEST","4.772359","45.832417"
"INVINCIBLE BOULE DE DOMMARTIN","Sport boules","Mairie","69380","DOMMARTIN","4.714432","45.834212"
"AMICALE BOULE BASTERO","Pratique du sport bouliste.","86 rue stephane dechant","69350","LA-MULATIERE","4.812369","45.723483"
"UNION SPORTIVE MILLERY VOURLES (USMV)","Pratique du football, gymnastique, tennis et autres sports","Mairie","69390","VOURLES","4.770695","45.662395"
"BOULE SPORTIVE DE COUZON","Pratique du sport bouliste","34 rue de la republique","69270","COUZON-AU-MONT-D'OR","4.831266","45.843644"
"LA BOULE DU VIEUX COQ","Favoriser et developper le gout du jeu de boules.","Cafe descours","69210","FLEURIEUX-SUR-L'ARBRESLE","4.650006","45.836052"
"AZUR PETANQUE","Pratique des sports boules","32 rue roger salengro","69500","BRON","4.908232","45.729903"
"ASSOCIATION CULTURELLE FRANCO POLONAISE ACFP","Developper et approfondir les liens culturels, folkloriques et","234 cours emile zola","69100","VILLEURBANNE","4.887866","45.767893"
"ASSOCIATION DE NOTRE DAME DE SAINT SORLIN","Achevement et maintien du sanctuaire notre dame de lourdes","Cure","69440","SAINT-SORLIN","4.637497","45.619353"
"CHASSE DE VAUGNERAY","Organisation de la chasse","Mairie","69670","VAUGNERAY","4.658026","45.737896"
"CHORALE DE L'INSTITUT NATIONAL DES SCIENCES APPLIQUEES (INSA)","Favoriser la vie intellectuelle des eleves par le chant choral.","20 avenue albert einstein","69100","VILLEURBANNE","4.878107","45.78264"
"LES AMIS DU GIBIER","de grouper des personnes en vue de l'organisation de la chasse, protection des propriétés et des récoltes","Les Vignes","69610","SAINT-GENIS-L'ARGENTIERE","4.467287","45.713145"
"CERCLE DE LA CARETTE","Gestion du cercle prive","3 montee de la soeur vially","69300","CALUIRE-ET-CUIRE","4.846466","45.785914"
"CONSEIL DES PARENTS D'ELEVES DU LYCEE ET DU CES JEAN PERRIN","Le maintien et la defense des principes traditionnels sur lesquels","77 rue jean jaures","69100","VILLEURBANNE","4.884396","45.75804"
"AMICALE RHONE ALPES DES ANCIENS DES TRANSMISSIONS","Representer les anciens des transmissions devant l'autorite mili","Chemin yetter","69270","FONTAINES-SUR-SAONE","4.859882","45.822366"
"GROUPEMENT DU SUD EST DU CHIEN DE BERGER SUR TROUPEAUX","Mettre en valeur les qualites du chien de berger aiderles proprietaires de berger de beauce","31 rives d'ozon","69360","SAINT-SYMPHORIEN-D'OZON","4.868899","45.630097"
"SYNDICAT DE DEFENSE DES PROPRIETAIRES ET EXPLOITANTS DU QUARTIER DE LAPLAINE A SAINT ROMAIN EN GAL","Defense des adherents en cas d'expropriation","Cafe cornu","69560","SAINT-ROMAIN-EN-GAL","4.851329","45.537268"
"ASSOCIATION DES PARENTS D'ELEVES DE L'ECOLE PUBLIQUE DU BOURG LISSIEU","Favoriser la collaboration des parents avec les maitres, la","Mairie","69380","LISSIEU","4.74792","45.858366"
"ASSOCIATION DES FAMILLES DE SAINT ANDRE LA COTE","Etude et defense des interets generaux des familles","Mairie","69440","SAINT-ANDRE-LA-COTE","4.599746","45.630047"
"COMITE D'ACTION POUR LE DEVELOPPEMENT ET L'ORGANISATION DU COMMERCEGIVORDIN","Defense des interets, promotion du commerce","26 rue longarini","69700","GIVORS","4.772676","45.585326"
"COMITE D'ORGANISATION SOUVENIR LOUIS PINEY","Pratique du sport cycliste","34 rue emile bender","69500","BRON","4.902693","45.733215"
"ASSOCIATION DES PARENTS D'ELEVES DE L'ECOLE PUBLIQUE D'EVEUX","Grouper les personnes ayant un idéal laïque. apporter une aide morale et matérielle aux enfants d'eveux fréquentant les écoles publiques. etudier et réaliser toute organisation extra scolaire d'intérêt social utile aux élèves et à leur famille. gestion et garde d'enfants de l'école publique après la classe, en étude surveillée.","Chemin de Grands Fonds","69210","EVEUX","4.620772","45.825631"
"COMITE DE DEFENSE DU TONKIN","Defendre les interets des habitants du quartier du tonkin","13 rue felix margini","69100","VILLEURBANNE","4.877655","45.768171"
"ASSOCIATION SPORTIVE DE SOUCIEU EN JARREST","Pratique des sports","10 rue Micky Barange","69510","SOUCIEU-EN-JARREST","4.701658","45.678671"
"LYON PARACHUTISME SPORTIF","Pratique du parachutisme","Aerodrome","69960","CORBAS","4.909309","45.666017"
"ASSOCIATION DES MAISONS COMMUNAUTAIRES JUIVES DE LYON ET DE LA PERIPHERIE","Gestion et controle de la maison communautaire juive de lyon","110 cours tolstoi","69100","VILLEURBANNE","4.880149","45.762021"
"ASSOCIATION DES FAMILLES DE SAINT FONS","Etudier et defendre les interets generaux des familles","18 rue dolet","69190","SAINT-FONS","4.858125","45.706797"
"AMICALE DES GARDIENS DES ECOLES DE VILLEURBANNE","Sympathie et soutien entre adherents","11 rue pierre joseph poudhon","69100","VILLEURBANNE","4.889538","45.773816"
"BRIDGE CLUB MONTCHAT VILLEURBANNE","Pratique du bridge","14 place grandclement","69100","VILLEURBANNE","4.886199","45.758412"
"ASSOCIATION SPORTIVE MORNANTAISE","Pratique des sports","Mairie","69440","MORNANT","4.670926","45.619337"
"SECTION DE LYON DU GROUPE UNIVERSITAIRE DE MONTAGNE ET DE SKI","Organiser pour les lyceens, etudiants, jeunes chercheurs et jeunes","Centre social charpennes tonkin","69100","VILLEURBANNE","4.865214","45.777152"
"COMITE D'ENTENTE LOCALE GROUPE LES MARCELLAS","Faciliter les relations de ses adherents avec la ste cilof","288 avenue general de gaulle","69500","BRON","4.923217","45.728158"
"CLUB D'AMIS DE L'UNESCO DE VILLEURBANNE","Favoriser la comprehension internationale","18 a. rue de la doua","69100","VILLEURBANNE","4.874149","45.778127"
"COMOEDIA DE LYON","Reunis ses membres afin de se livrer au theatre, a la litterature,","Residence le petit chavril","69110","SAINTE-FOY-LES-LYON","4.804601","45.74746"
"FOYER SOCIAL EDUCATIF DU LYCEE TECHNIQUE NATIONALISE EDMOND LABRE","Animer et coordonner les activites culturelles","9 chemin des chassagnes","69600","OULLINS","4.809511","45.723046"
"LES JEUNES VILLAGEOIS","Distraire et regrouper les jeunes.","","69610","SAINT-GENIS-L'ARGENTIERE","4.48984","45.71104"
"ASSOCIATION DE L'ECOLE D'ETE DE DUBLIN","Organiser le fonctionnement d'une ecole d'ete a dublin.","31 cours de verdun","69290","CRAPONNE","4.717857","45.74274"
"TENNIS CLUB NEUVILLOIS","La pratique du tennis","Parc des Sports","69250","NEUVILLE-SUR-SAONE","4.853095","45.889705"
"BUREAU D'ETUDES ET DE COORDINATION","Soutenir, favoriser et aider les organismes dont la vocation","234 cours emile zola","69100","VILLEURBANNE","4.887866","45.767893"
"ASSOCIATION POUR LE DEVELOPPEMENT DES ACTIVITES DE L'INSTITUT FRANCAIS DE GESTIONDE LA REGION RHONE ALPES","Suivre, soutenir le developpement dans la regions rhone alpes des","Parc d'activites 280 allee des hetres bp 41","69760","LIMONEST","4.774563","45.807376"
"ASSOCIATION DES AMIS DU CENTRE CROISSANCE DES JEUNES NATIONS","Etude des problemes du developpement economique et social en asie","32 rue michel dupeuble","69100","VILLEURBANNE","4.891233","45.775697"
"CONSEIL DES PARENTS D'ELEVES DU CES D'IRIGNY","En dehors de toute activite politique ou religieuse ou toute inter","12 rue neuve","69540","IRIGNY","4.823888","45.684034"
"ENTENTE SPORTIVE DE MILLERY","Pratique des sports","Mairie","69390","MILLERY","4.783839","45.631712"
"ASSOCIATION SPORTIVE DU GROUPE SCOLAIRE PASTEUR DE BRON","Pratique des sports par les eleves de l etablissement","9 avenue des colonnes","69500","BRON","4.906218","45.730919"
"ASSOCIATION PAROISSIALE DE RIVERIE","Gerer les oeuvres paroissiales de la commune","Place du marche","69440","RIVERIE","4.589007","45.600204"
"COMITE LYONNAIS DE RECHERCHES THERAPEUTIQUES EN PSYCHIATRIE","Mener a bien l'etude scientifique des nouvelles orientations","95 boulevard pinel","69500","BRON","4.894137","45.742052"
"ASSOCIATION RHONE ALPES AUVERGNE DES CADRES DE RESERVE DU COMMISSARIAT DE L'ARMEE DE TERRE","Aide au perfectionnement de l'instruction militaire","Route du mas rillier","69140","RILLIEUX-LA-PAPE","4.905564","45.823497"
"ASSOCIATION DU GRAND SUD OUEST LOU CANTOU","Association entre les originaires des regions aquitaine midi pyre","Rue de la Cascade","69290","SAINT-GENIS-LES-OLLIERES","4.742405","45.755987"
"AMICALE SOCIETE MECANIQUE DE PERRACHE","Apporter l'appui de sa personnalite morale aux societaires.","57 bis rue terraillon","69500","BRON","4.925467","45.742006"
"ASSOCIATION COMMUNAUTAIRE DU PERSONNEL DE TECHNIC PHOTO","Realiser toutes mesures sociales en faveur du personnel.","331 rue francis de pressense","69100","VILLEURBANNE","4.898008","45.766508"
"COMITE POUR NOS GOSSES DE LA MULATIERE","Organiser les loisirs des enfants de la commune","102 chemin des chassagnes","69350","LA-MULATIERE","4.806191","45.72787"
"CONSEIL DES PARENTS D'ELEVES DU COLLEGE RENOIR","Joignez vous au conseil des parents d'élève de votre ville.","Impasse de la tatiere","69250","NEUVILLE-SUR-SAONE","4.841692","45.87413"
"COMITE D'ENTENTE DES SECTIONS BOULISTES D'ENTREPRISES DE LA REGIONLYONNAISE","Pratique du sport bouliste","Cafe de l'etoile","69100","VILLEURBANNE","4.877434","45.771126"
"ASSOCIATION PAROISSIALE ASSOCIATION PAROISSIALE DE LA PAROISSE SAINT LUC","Creation de la paroisse st luc, edification de l'eglise","Place saint luc","69110","SAINTE-FOY-LES-LYON","4.800124","45.749883"
"CLUB DES JEUNES DE CHAMPAGNE","Découvrez les activités proposées par l'association du club des jeunes de champagne","Mairie","69410","CHAMPAGNE-AU-MONT-D'OR","4.788661","45.794024"
"PETANQUE ALBIGNOLAISE","Pratique de la petanque","Cafe malnis","69250","ALBIGNY-SUR-SAONE","4.82951","45.866601"
"ASSOCIATION SPORTIVE DARDILLY","Pratique des sports","Mairie","69570","DARDILLY","4.753614","45.805818"
"COMITE PAROISSIAL DE POLLIONNAY","Organiser les activites paroissiales","Presbytere","69290","POLLIONNAY","4.664875","45.770107"
"ASSOCIATION LES PETITS AMIS","Etablir une collaboration plus etroite entre les mamans et les","28 rue franklin","69120","VAULX-EN-VELIN","4.924521","45.787512"
"ASSOCIATION SPORTIVE CAMPING GAZ","Developper la pratique du sport","Le favier","69230","SAINT-GENIS-LAVAL","4.772664","45.704338"
"SOCIETE DES SCIENCES VETERINAIRES ET DE MEDECINE COMPAREE DE LYON","Etude developpement des sciences se rapportant a la medecine vete","Ecole veterinaire","69280","MARCY-L'ETOILE","4.708342","45.783266"
"AMICALE DES ELEVES DE L'INSTITUT DE SCIENCE FINANCIERE ET D'ASSURANCES","Contribuer au developpement des sciences actuarielles","43 boulevard du 11 novembre","69100","VILLEURBANNE","4.872319","45.779216"
"CLUB DES MECANICIENS DE L'INSTITUT NATIONAL DES SCIENCES APPLIQUEES","Introduire le gout de la mecanique generale, construire des karts","20 avenue albert einstein","69100","VILLEURBANNE","4.878107","45.78264"
"UNION SPORTIVE SAINT THOMAS D'AQUIN","Participer aux epreuves sportives de la federation","56 rue du perron","69600","OULLINS","4.809567","45.710614"
"ASSOCIATION DES RESIDENTS UNIVERSITAIRES DE LA DOUA","Grouper les etudiants de la residence pour la defense de leurs","3 avenue albert einstein","69100","VILLEURBANNE","4.876064","45.780962"
"UNION DES FAMILLES DE LENTILLY","Etudier et défendre les intérêts généraux des familles","","69210","LENTILLY","4.662737","45.814858"
"COMITE D'AIDE AUX PERSONNES AGEES ET AUX NECESSITEUX DE VAULX EN VELIN","Secourir personnes agees en difficulte","Place de la nation","69120","VAULX-EN-VELIN","4.921221","45.778049"
"FOYER BOISARD","Animation du foyer de jeunes travailleurs","80 rue alexandre dumas","69120","VAULX-EN-VELIN","4.92724","45.753581"
"LIGUE DU LYONNAIS DE LUTTE","Pratique de la lutte","5 rue antoine lumiere","69150","DECINES-CHARPIEU","4.965637","45.762952"
"CALUIRE CADRE DE VIE COMITES DES QUARTIERS VASSIEUX CREPIEUXMERCIERES","Coordonner les demarches et actions pour reunir toutes les","50 chemin des peupliers","69300","CALUIRE-ET-CUIRE","4.868918","45.800013"
"LA VIE NOUVELLE","Developper et proposer l'education adulte sous toutes ses formes","14 rue georges clemenceau","69660","COLLONGES-AU-MONT-D'OR","4.845145","45.823206"
"ASSOCIATION SPORTIVE MERIEUX (ASM)","Pratique des sports","Chemin de l'Orme","69280","MARCY-L'ETOILE","4.709271","45.78079"
"ASSOCIATION BASKET BALL DE MONTROTTIER","Pratique du basket","Mairie","69770","MONTROTTIER","4.466226","45.800364"
"GROUPE DE RECHERCHES ET D'ETUDES SPELEO-SCIENTIFIQUES","Grouper les adeptes de la speleologie","Foyer max barel","69200","VENISSIEUX","4.898911","45.698345"
"AMICALE DES CLASSES EN 5","Fraternite entre conscrits","4 rue pierre simard","69210","L'ARBRESLE","4.618575","45.834604"
"ASSOCIATION DU RHONE DES OFFICIERS ET SOUS OFFICIERS DE RESERVE REPUBLICAINS","Defense des interets des cadres de reserve","234 cours e zola","69100","VILLEURBANNE","4.887866","45.767893"
"FOYER SOCIO EDUCATIF DES COLLEGES D'ENSEIGNEMENT TECHNIQUE D'ENSEIGNEMENT GENERAL ET LYCEE TECHNIQUE","Coordonner les activites culturelles","46 rue frederic fays","69100","VILLEURBANNE","4.904947","45.761936"
"ASSOCIATION PAROISSIALE DE BONNETERRE","Creation de la paroisse de bonneterre et edification de l'eglise","27 avenue blanqui","69100","VILLEURBANNE","4.884798","45.762813"
"ASSOCIATION SPORTIVE NEUVILLOISE","Pratique des sports","Mairie","69250","NEUVILLE-SUR-SAONE","4.838026","45.878996"
"COMITE DES OEUVRES SOCIALES DU PERSONNAL COMMUNAL DE LA MULATIERE","Actions sociales en faveur du personnel communal","Mairie","69350","LA-MULATIERE","4.810694","45.733604"
"ASSOCIATION DES AMIS DE L'ECOLE PUBLIQUE DU MAZEL CANTINE SCOLAIRE","Etablir un lien entre les familles et l'ecole assurer le service","Ecole Publique du Mazel","69590","LARAJASSE","4.519628","45.586547"
"SOCIETE HIPPIQUE NATIONALE RHONE ALPES","Pratique des sports equestres","1 rue bellevue","69190","SAINT-FONS","4.857112","45.698646"
"AMICALE JEUNESSE BOULE EN VERRE","Pratique du sport bouliste","12 rue de la jeunesse","69100","VILLEURBANNE","4.898215","45.774055"
"ASSOCIATION DES LOCATAIRES CITE PASTEUR SACVL A CALUIRE","Faciliter dans un esprit de bonne collaboration les relations de ses adherents avec la societe anonyme de construction de la ville de lyon et toutes administrations","44-1 rue pasteur","69300","CALUIRE-ET-CUIRE","4.843349","45.791719"
"ASSOCIATION FRATERNELLE BOULE DU MONUMENT","La pratique du sport bouliste","20 avenue pierre terrasse","69300","CALUIRE-ET-CUIRE","4.85096","45.798069"
"ASSOCIATION POUR L'ETUDE ET LE TRAITEMENT DES MALADIES CARDIO VASCULAIRES","De faciliter les recherches therapeutiques en particulier dans les maladies du coeur et des vaisseaux etc","Hopital cardiologique","69500","BRON","4.905948","45.732476"
"ASSOCIATION DES FAMILLES DE FLEURIEU SUR L'ARBRESLE","Etudier et defendre les interets des generaux des familles","Mairie","69210","FLEURIEUX-SUR-L'ARBRESLE","4.647093","45.839652"
"AIGLE SPORTIF VILLEURBANNE","La pratique de l'education physique, des sports et des loisirs.","17 rue severine","69100","VILLEURBANNE","4.913367","45.754567"
"CLUB SPORTIF IBM FRANCE DE LYON","Pratique des sports","21 chemin de la sauvegarde","69130","ECULLY","4.786746","45.777282"
"UNION SPORTIVE ET CULTURELLE FRANCHEVILLOISE","Pratique des sports","Mairie","69340","FRANCHEVILLE","4.764099","45.739227"
"ASSOCIATION DE DEFENSE DES PROPRIETAIRES DU CRUY ET DES BALMES DE SAINTE DFOY LES LYON","Defense et representation des interets des proprietaires","85 chemin de montray","69110","SAINTE-FOY-LES-LYON","4.791561","45.73013"
"ASSOCIATION MUSICALE DE VAUGNERAY","Encourager l' art musical et les arts en general par tous les moyens","1 place de la mairie","69670","VAUGNERAY","4.658083","45.737771"
"COMITE DE DEFENSE DES LOCATAIRES DE LA SOCIETE SOCFONS","Defense des locataires","37 rue parmentier","69190","SAINT-FONS","4.861042","45.705601"
"ASSOCIATION PETANQUE CLUB GIVORDIN","La pratique de l'education physique et des sports.","Cafe de la gare","69700","GIVORS","4.770345","45.585661"
"ASSOCIATION LA SAINT HUBERT DE GREZIEU LE MARCHE","Reserver a tous ses membres le droit de chasse sur tous les ter","Grezieu le marche","69610","GREZIEU-LE-MARCHE","4.438679","45.672093"
"AMICALE INTER CLASSES DE L'ARBRESLE","Grouper les conscrits de ces classes","Mairie","69210","L'ARBRESLE","4.615759","45.835685"
"CALUIRE LOISIRS ET FAMILLES","Etudier et defendre les interets generaux des familles","36 A rue Francois Peissel","69300","CALUIRE-ET-CUIRE","4.84054","45.794193"
"UNION DES AMIS DU FOYER COMMUNAL MAX BAREL","Animer les activites du foyer","Foyer communal max barel","69200","VENISSIEUX","4.898911","45.698345"
"UNION DES AMIS DU FOYER COMMUNAL VAILLANT COUTURIER","Promouvoir animer surveiller l'ensemble des activites du foyer","Rue pierre brossolette","69200","VENISSIEUX","4.859313","45.727786"
"ASSOCIATION SPORTIVE ET CULTURELLE DU CENTRE DE FORMATION PROFESSIONNEL DES ADULTESDE RILLIEUX LA PAPE","Organiser au profit de stagiaires du centre fpa des activites","8 chemin des iles","69140","RILLIEUX-LA-PAPE","4.887044","45.80477"
"ASSOCIATION DES JEUNES ET DE LA CULTURE GRANGE BRUYERE PONCETTES LA PLAINE","Activites pour l'epanouissement de la jeunesse et des familles","65 rue du commandant charcot","69110","SAINTE-FOY-LES-LYON","4.792966","45.748462"
"MAISON DES JEUNES ET DE LA CULTURE SAINT MARTIN EN HAUT","Promouvoir des loisirs sportifs, educatifs et culturels.","Place au plon","69850","SAINT-MARTIN-EN-HAUT","4.564699","45.65897"
"ASSOCIATION DES GEOLOGUES DU SUD EST","Contacts scientifiques techniques humains entre ses membres","Université Claude Bernard","69100","VILLEURBANNE","4.867693","45.781075"
"ASSOCIATION POUR LE DEVELOPPEMENT DE LA CULTURE (ADC)","La formation civique et culturelle","Maison des societes","69500","BRON","4.915795","45.736042"
"ASSOCIATION D'AIDE AUX MALADES CHRONIQUES TRAITES PAR LE REIN ARTIFICIEL","Aide aux malades","48 avenue du 8 mai 1945","69160","TASSIN-LA-DEMI-LUNE","4.764578","45.760971"
"CENTRE D'ACTION CULTURELLE MAISON DES JEUNES DE SAINT FONS VENISSIEUX","Gestion et animation du centre","20 allee picard","69200","VENISSIEUX","4.865188","45.706959"
"ACADEMIE DES MONTS D'OR","Faire connaitre a tous, l'etat des travaux et des recherches de","1 chemin de moyrand","69660","COLLONGES-AU-MONT-D'OR","4.838562","45.828711"
"AMICALE DES ANCIENS DE BONE ET DE L'EST ALGERIEN","Grouper les personnes nees a bone ou dans l'est algerien","37 chemin des petites brosses","69300","CALUIRE-ET-CUIRE","4.856523","45.793092"
"ASSOCIATION CULTURELLE SPORTIVE ET DE PLEIN AIR DES ELEVES DU CENTRE DE FORMATIOND'EDUCATEURS DE LYON","Pratique des sports, activites culturelles et de plein air","79 quai clemenceau","69300","CALUIRE-ET-CUIRE","4.841534","45.800848"
"COMITE LOCAL DE VAULX EN VELIN DE FRANCE RDA","Developper les echanges culturels","Maison des societes","69120","VAULX-EN-VELIN","4.904372","45.772119"
"OFFICE MUNICIPAL DES SPORTS DE TASSIN LA DEMI LUNE","Developper la pratique des sports","Mairie","69160","TASSIN-LA-DEMI-LUNE","4.76964","45.761674"
"ASSOCIATION SYNDICALE DES FAMILLES DE BRON","Defense des interets des familles","Maison des societes","69500","BRON","4.915795","45.736042"
"AMICALE DES CHEFS DE SECTEURS DE LA SDEI","La creation le maintien le developpement des liens entre les membres l'entraide en toutes occasions par tous moyens : voyages informations diverses a caractere prive et professionnel compte rendu journaux","988 che pierre drevet","69140","RILLIEUX-LA-PAPE","4.872057","45.807674"
"ASSOCIATION POUR LA GESTION DE FONDS DE REGULARISATION DES RESSOURCES DES SALAIRES DE LASOCIETE FLORENCE ET PEILLON","Gestion du fonds de regularisation des ressources des salaries","68 avenue de boehlen","69120","VAULX-EN-VELIN","4.928216","45.766067"
"ASSOCIATION DES RESTAURANTS D'ENFANTS DE TASSIN LA DEMI LUNE","Organiser et assurer le service du repas de midi au élèves de la","22 avenue Leclerc","69160","TASSIN-LA-DEMI-LUNE","4.775653","45.761273"
"ASSOCIATION DES DIETETICIENS NUTRITIONISTES","L'entraide culturelle et sociale sous toutes ses formes","6 rue pascal","69100","VILLEURBANNE","4.875191","45.761815"
"PERSPECTIVES ET REALITES","Etude des problemes politiques economiques et sociaux","59 ter cours emile zola","69100","VILLEURBANNE","4.888325","45.767718"
"ASSOCIATION SPORTIVE DE L'IUT B","Favoriser et organiser la pratique des sports de competition pour les etudiants de l'iut b.","17 rue de france","69100","VILLEURBANNE","4.886996","45.767227"
"ASSOCIATION LOISIRS ET CULTURE DE POLEYMIEUX","Activites culturelles et recreatives","Mairie","69250","POLEYMIEUX-AU-MONT-D'OR","4.800136","45.856386"
"MUSEE DU CINEMA DE LYON","Organisation et conservation du musee du cinema","69 rue jean jaures","69100","VILLEURBANNE","4.883515","45.757842"
"ASSOCIATION DES SECRETAIRES MEDICALES ET MEDICO SOCIALES DU RHONE","Grouper les secretaires medicales et organiser la profession","63 rue jean jaures","69100","VILLEURBANNE","4.883055","45.757834"
"FRANCAISE DE FONTAINES SUR SAONE HAND BALL","La pratique de l'education physique et des sports","21 quai jean baptiste simon","69270","FONTAINES-SUR-SAONE","4.846714","45.833035"
"ASSOCIATION SPORTIVE ET CULTURELLE DE POLLIONNAY (ASCP)","Encourager la pratique des sports","Mairie","69290","POLLIONNAY","4.661591","45.765756"
"CERCLE DU LIVRE PROGRESSISTE","Faire connaitre la litterature progressiste","49 rue joseph faure","69700","GIVORS","4.773605","45.584226"
"ASSOCIATION CANOE KAYAK CLUB DE GIVORS","La pratique de l'education physique et des sports","1 rue des tuileries","69700","GIVORS","4.769556","45.590004"
"BOULE SPORTIVE DE FLEURIEU SUR SAONE","Sport bouliste","Cafe de la place","69250","FLEURIEU-SUR-SAONE","4.845304","45.862879"
"CLUB MUNICIPAL OMNISPORT DE VENISSIEUX","Sports et loisirs sportifs","Foyer communal rue max barel","69200","VENISSIEUX","4.898911","45.698345"
"SOCIETE MUSICALE CHATEAUVIEUX DE SAINTE CATHERINE","Faire de la musique et de contribuer a tout ce qui se rapporte a","","69440","SAINTE-CATHERINE","4.577687","45.601323"
"COMITE DE PIERRE BENITE DE LA FEDERATION NATIONALE DES ANCIENSCOMBATTANTS EN ALGERIE","Defense des interets des anciens combattants en afn","21 rue de la republique","69310","PIERRE-BENITE","4.825028","45.703226"
"ASSOCIATION JAZZ CLUB DE LYON","La recherche et la reunion d'amateurs de jazz en vue d'auditions","24 place aristide briand","69560","SAINTE-COLOMBE","4.868925","45.526536"
"ASSOCIATION DES RIVERAINS DE LA ZONE INDUSTRIELLE DE CRAPONNE","Defense des interets des habitants","10 rue du thorey","69290","CRAPONNE","4.737988","45.749387"
"ASSOCIATION BOULISTE DU PERSONNEL DE LA MAISON DE RETRAITE DU MONT D'OR","Pratique du jeu de boules","Cafe malnis","69250","ALBIGNY-SUR-SAONE","4.82951","45.866601"
"ASSOCIATION DES PHARMACIENS CHIMISTES DE RESERVE DE LA CIRCONSCRIPTION MILITAIRE DE DEFENSE DE LYON","Instruction militaire des pharmaciens de reserve de la region","16 avenue de bezange","69540","IRIGNY","4.823382","45.672863"
"ASSOCIATION DE PROPRIETAIRES D'AVIONS DE LA REGION LYONNAISE (APARLY)","Faciliter a ses membres la pratique de l'aviation","Aeroport de bron","69500","BRON","4.911262","45.72906"
"COMITE D'INTERET LOCAL SAINT JEAN","Faire connaitre a la municipalite les aspirations et les desirs","Maison des societes","69500","BRON","4.915795","45.736042"
"LA GAULE MORNANTAISE","Pratique de la pêche","Maison des Associations","69440","MORNANT","4.701121","45.619052"
"CLUB SPORTIF DES NOUVELLES GALERIES","La pratique de l'education physique et des sports","Boulevard pinel","69500","BRON","4.890938","45.736745"
"COMITE D'AMITIE VENISSIEUX OSCHATZ ECHANGES FRANCO ALLEMANDS","Promouvoir les echanges de toutes natures","8 avenue du 8 mai 45","69200","VENISSIEUX","4.871525","45.693958"
"COMITE DE JUMELAGES ET D'ECHANGES INTERNATIONAUX DE VENISSIEUX","Promouvoir les echanges europeens","Hotel de ville","69200","VENISSIEUX","4.854161","45.724425"
"ASSOCIATION NATIONALE DES AUXILIIAIRES DE PUERICULTURE","Grouper les auxiliaires de puericulture, definir les activites de","11 avenue des tilleuls","69360","SAINT-SYMPHORIEN-D'OZON","4.85311","45.635197"
"UNION DES AMIS DU FOYER COMMUNAL MARCEL SEMBAT","Animer, surveiller les activites du foyer","Boulevard marcel semblat","69200","VENISSIEUX","4.878583","45.714043"
"ASSOCIATION DES FAMILLES DE SAINTE FOY L'ARGENTIERE","Etudier et defendre les interets generaux des familles","Mairie","69610","SAINTE-FOY-L'ARGENTIERE","4.471955","45.70825"
"ASSOCIATION DES FAMILLES DE RIVERIE","Etudier et defendre les interets generaux des familles","Mairie","69440","RIVERIE","4.589376","45.599525"
"COMITE DES OEUVRES SOCIALES DU PERSONNEL TERRITORIAL DE LA VILLE DEPIERRE BENITE","Aide sociale en faveur du personnel","Mairie","69310","PIERRE-BENITE","4.819773","45.701814"
"SOCIETE DE CHASSE ET DE PROTECTION AGRICOLE DE MEYS","Organisation de la chasse","","69610","MEYS","4.395508","45.682071"
"ASSOCIATION DES PARENTS D'ELEVES DU COLLEGE AGRICOLE ET HORTICOLE DE LYON ECULLY DARDILLY","Rechercher et discuter en commun tout ce qui concerne l'interet","","69570","DARDILLY","4.749329","45.81573"
"MAISON MAISON DES JEUNES ET DE LA CULTURE DE CRAPONNE","Gestion de la mjc de craponne","22 bis avenue bergeron","69290","CRAPONNE","4.722796","45.744641"
"ASSOCIATION LOISIR SKI","Le developpement du ski et des sports d'hiver chez les enfants","10 rue deshay","69110","SAINTE-FOY-LES-LYON","4.800144","45.73634"
"CONFEDERATION SYNDICALE DU CADRE DE VIE SECTION VENISSIEUX","Regrouper les residents de la zup des minguettes en vue de defen","4 avenue de la division leclerc","69200","VENISSIEUX","4.865967","45.698813"
"FOYER SOCIO EDUCATIF DU CET MIXTE JM JACQUARD","Promouvoir animer les activites culturelles de l'etablissement","20 rue blanqui","69600","OULLINS","4.810124","45.711895"
"JEUNESSE CYCLISTE FIDESIENNE","La pratique de l'education physique et des sports","Mairie","69110","SAINTE-FOY-LES-LYON","4.79394","45.736615"
"ASSOCIATION LYONNAISE ANTOINE MARTEL","Education populaire a l'interieur des cites et centres de l'oeuvre","2 impasse de l'ecluse","69300","CALUIRE-ET-CUIRE","4.829077","45.794977"
"CONSEIL DES PARENTS D'ELEVES DU LYCEE BOULEVARD MARCEL SEMBAT VENISSIEUX","Grouper et representer les parents d'eleves","Boulevard marcel sembat","69200","VENISSIEUX","4.878583","45.714043"
"GROUPEMENT D'ACTION JUDICIAIRE","Obtenir l'amelioration et l'efficacite du systeme judiciaire fran","30 chemin de charriere blanche","69130","ECULLY","4.774229","45.779169"
"AMICALE DES LOCATAIRES SOEUR VIALLY","Defense des interets des locataires","13 15 17 montée de la soeur vially","69300","CALUIRE-ET-CUIRE","4.844061","45.787117"
"MAISON DES JEUNES ET DE LA CULTURE MAISON POUR TOUS","Gestion de la mjc de grigny","2 avenue jean durand","69520","GRIGNY","4.787478","45.607467"
"ASSOCIATION DES PARENTS D'ELEVES DE L'ECOLE SAINTE BLANDINE","Grouper les chefs de famille ayant la charge d'enfants inscrits a","Ecole Sainte Blandine","69450","SAINT-CYR-AU-MONT-D'OR","4.817998","45.814601"
"FOYER SOCIO EDUCATIF DE L'ECOLE REGIONALE D'ENSEIGNEMENT ADAPTE POUR DEFICIENTS DE LAVUE","Coordonner et animer les activites culturelles de l'ecole","32 rue de france","69100","VILLEURBANNE","4.886787","45.765416"
"OFFICE DE TOURISME LES HAUTS DU LYONNAIS","Information et accueil des touristes","Maison du Canton","69590","SAINT-SYMPHORIEN-SUR-COISE","4.462476","45.63212"
"MAISON DES JEUNES ET DE LA CULTURE D'IRIGNY","Gestion de la mjc","Mairie","69540","IRIGNY","4.823005","45.673499"
"ASSOCIATION DES FAMILLES DE CHEVINAY","Defense des interets des familles rurales","Mairie","69210","CHEVINAY","4.590177","45.782852"
"COLLEGE D'ETUDES MEDICALES","Recherche medicales sous tous ses aspects","1 rue laborde","69500","BRON","4.893616","45.738262"
"COMITE LOCAL DE GIVORS DE L'ASSOCIATION FRANCE URSS","Cooperation amicale entre la france et l'urss","Mairie","69700","GIVORS","4.771636","45.582528"
"HARMONIE ET ECOLE DE MUSIQUE DE L'ALOUETTE","Encourager et defendre l'art musical sous toutes ses formes","Rue fleury salignat","69140","RILLIEUX-LA-PAPE","4.89579","45.822189"
"ASSOCIATION CHASSE COMMUNALE DE RILLIEUX","Syndiquer les proprietaires et habitants de la commune, en vue de","Mairie","69140","RILLIEUX-LA-PAPE","4.892794","45.818368"
"AMICALE BOULE DE RILLIEUX","Pratique du sport bouliste","1088 avenue victor hugo","69140","RILLIEUX-LA-PAPE","4.880245","45.820884"
"CONFEDERATION NATIONALE DU LOGEMENT SECTION DE RILLIEUX LA PAPE","Creer et organiser des oeuvres sociales","413 avenue de l'europe","69140","RILLIEUX-LA-PAPE","4.898717","45.815832"
"ASSOCIATION BOULE DES AMIS","La pratique du jeu de boules","124 route de strasbourg","69140","RILLIEUX-LA-PAPE","4.895353","45.819465"
"AMICALE DES ANCIENS ELEVES DU CET GEORGES LAMARQUE","Amitie entre anciens eleves, aider au developpement du centre","10 route de geneve","69140","RILLIEUX-LA-PAPE","4.882527","45.803785"
"ASSOCIATION SPORTIVE DU LEP GEORGES LAMARQUE","Pratique des sports par les eleves","10 route de geneve","69140","RILLIEUX-LA-PAPE","4.882527","45.803785"
"ASSOCIATION PAROISSIALE SAINT JEAN MARIE VIANNEY","Soutien moral et materiel aux activites de la paroisse st jean","87 bis route de geneve","69140","RILLIEUX-LA-PAPE","4.893603","45.807501"
"CLUB HIPPIQUE DU RAVIN","Pratique des sports equestres","20 rue faidherbe","69580","SATHONAY-CAMP","4.871495","45.83099"
"ASSOCIATION SPORTIVE DU CES DE PIERRE BENITE","Pratique des sports par les eleves","Ces rue charbinat","69310","PIERRE-BENITE","4.82053","45.698505"
"AMICALE DES ANCIENS DE THURINS PONTCHARRA ET VOURLES","Relations amicales, entraide mutuelle","Institut louis querbes","69390","VOURLES","4.77218","45.659196"
"RESTAURANT ADMINISTRATIF DU PERSONNEL DES PTT","Gestion du restaurant administratif","25 bis rue paul verlaine bp 5070","69100","VILLEURBANNE","4.880346","45.767425"
"UNION SPORTIVE DE MONTANAY","Pratique des sports et loisirs","Mairie","69250","MONTANAY","4.861441","45.878411"
"ASSOCIATION LES RESIDENTS DE CHALIN","La defense des interets de ses membres dans l'exercice de leurs","Mairie","69130","ECULLY","4.792558","45.773679"
"ASSOCIATION LA BOULE JOYEUSE DE ROCHETAILLEE","La tenue d'assemblee periodique et l'organisation de concours de","12 quai pierre dupont","69270","ROCHETAILLEE-SUR-SAONE","4.835498","45.845195"
"SPORTING CLUB LYONNAIS DES TRAVAILLEURS DE L'ETAT","Pratique des sports","29 rue de la pagere","69500","BRON","4.916232","45.746339"
"FOOTBALL CLUB DE CAILLOUX SUR FONTAINES","Pratique du football","Stade des prolières","69270","CAILLOUX-SUR-FONTAINES","4.87016","45.852028"
"COMITE DES FETES DE BESSENAY","Animer le commerce local","","69690","BESSENAY","4.555139","45.769413"
"ASSOCIATION OLYMPIQUE COUZON AU MONT D'OR","La pratique de l'education physique et des sports","27 rue gabriel peri","69270","COUZON-AU-MONT-D'OR","4.83254","45.849618"
"COMITE DE CRAPONNE DE LA FEDERATION NATIONALE DES ANCIENS COMBATTANTSEN ALGERIE","Renforcer les liens de solidarite et de camaraderie entre anciens","Cafe de la gare","69290","CRAPONNE","4.723269","45.744352"
"ASSOCIATION CULTUELLE DES ISRAELITES SEPHARADES DE VILLEURBANNE ETZ HAIM","Excercice du culte selon le rite sepharade","19 avenue general leclerc","69100","VILLEURBANNE","4.891009","45.756827"
"ASSOCIATION SPORTS LOISIRS DE BELLEGARDE","Pratique des sports","22 avenue gambetta","69250","NEUVILLE-SUR-SAONE","4.841877","45.870497"
"UNION DES CHASSEURS DE DECINES CHARPIEU","Organisation de la chasse","Mairie","69150","DECINES-CHARPIEU","4.958356","45.768363"
"SOCIETE DU SOU DES ECOLES LAIQUES DE TERNAY","Developper l'esprit laique","Mairie","69360","TERNAY","4.810602","45.606355"
"ECOLE DE NATATION SPORT NAUTIQUE ATHLETIQUE","O","","69320","FEYZIN","4.858943","45.672753"
"ASSOCIATION LES PECHEURS A LA LIGNE DE L'OZON","Detenir et gerer des droits de peche sur les domaines publics et","","69360","SAINT-SYMPHORIEN-D'OZON","4.870588","45.63828"
"ASSOCIATION LES GUIONS","Favoriser les loisirs, le tourisme et la culture populaire","Hotel de ville","69800","SAINT-PRIEST","4.935444","45.694202"
"ASSOCIATION EVEIL SPORTIF JONAGEOIS","La pratique de l'education physique et des sports","Mairie","69330","MEYZIEU","5.007907","45.774496"
"LES ENFANTS DE L'OZON","Enseignement de l'art musical ; etude de la musique d'ensemble","","69360","SAINT-SYMPHORIEN-D'OZON","4.870588","45.63828"
"AMICALE DES PARENTS D'ELEVES DE L'ECOLE LAIQUE DE LA CITE BERLIET","Prendre soin de l'ecole et la rendre agreable ; creer et entrete","Ecole cite berliet","69800","SAINT-PRIEST","4.899066","45.70476"
"ASSOCIATION ETOILE SPORTIVE DE CHASSIEU","La pratique de l'education physique et des sports","7 rue des sports","69680","CHASSIEU","4.969394","45.74215"
"ORGANISME DE GESTION ECOLE CATHOLIQUE DE SAINT SYMPHORIEN D'OZON","Organiser par tous les moyens appropries le fonctionnement d'un ou","1, rue du Parc","69360","SAINT-SYMPHORIEN-D'OZON","4.853607","45.635457"
"ASSOCIATION DES FAMILLES DE FEYZIN","Etudier et defendre les interets generaux des familles","Mairie","69320","FEYZIN","4.857225","45.671375"
"ASSOCIATION D'EDUCATION POPULAIRE DE SAINT PIERRE DE CHANDIEU","Organiser des loisirs, colonies et camps de vacances, fetes, etc","Mairie","69780","SAINT-PIERRE-DE-CHANDIEU","5.007944","45.643037"
"CLUB SPORTIF DE DECINES CHARPIEU","Pratique des sports","Mairie","69150","DECINES-CHARPIEU","4.958356","45.768363"
"ASSOCIATION DES PARENTS D'ELEVES DE L'ECOLE PRIVEE MIXTE DE FEYZIN","Grouper les chefs de famille ayant la charge d'enfants inscrits a","Chemin de la garenne","69320","FEYZIN","4.85689","45.667455"
"EVEIL SPORTIF GENAS AZIEU","Coordonner les actions des associations sportives de la commune","Mairie","69740","GENAS","5.01822","45.74032"
"PETANQUE BOULES FEYZINOISE","Pratique de la petanque","Cafe maurice","69320","FEYZIN","4.858853","45.678144"
"AMICALE DU PERSONNEL DES SERVICES MUNICIPAUX DE LA VILLE DE DECINESCHARPIEU","Camaraderie et entraide entre adherents","Hotel de ville","69150","DECINES-CHARPIEU","4.948468","45.778531"
"ASSOCIATION COMICE AGRICOLE DES CANTONS DE MEYZIEU BRON DECINES CHARPIEU PONT DE CHERUY VAULX EN VELIN ET VILLEURBANNE REUNIS","Encourager dans les six cantons le developpement des progres de","Mairie","69330","MEYZIEU","5.007907","45.774496"
"AMICALE DES ANCIENS COMBATTANTS 1939/1945 DE SAINT LAURENT DE MURE SAINT BONNET DE MURE GRENAY","Amitie et solidarite entre adherents, defense de leurs interets","Mairie","69720","SAINT-LAURENT-DE-MURE","5.046147","45.68676"
"ASSOCIATION SPORTIVE DE COMMUNAY OMNISPORT","De coordonner l'action d'autres groupements sportifs","Mairie","69360","COMMUNAY","4.837701","45.597594"
"ASSOCIATION LES ECHOS DE TERNAY","L'etude et la pratique de la musique et plus particulierement","","69360","TERNAY","4.809237","45.608854"
"LES AMIS DU JEUDI","Aide materielle et morale aux personnes agees","Mairie","69360","SEREZIN-DU-RHONE","4.823827","45.629235"
"CLUB BOULISTE DE SEREZIN DU RHONE","Pratique du jeu de boules","","69360","SEREZIN-DU-RHONE","4.829252","45.624938"
"ASSOCIATION PAROISSIALE ASSOCIATION PAROISSIALE DE CHASSIEU","Organisation financiere et materielle de la paroisse","Rue de la republique","69680","CHASSIEU","4.97113","45.741632"
"BOULE DES AMIS DE GENAS","Pratique de boules et de l'education physique","19 place jean jaures","69740","GENAS","5.01667","45.737872"
"MAISON D'OEUVRES ACCUEIL NOTRE DAME","Heberger les religieux desireux de faire une retraite","Route de toussieu","69720","SAINT-BONNET-DE-MURE","5.033809","45.683505"
"SOU DES ECOLES LAIQUES DE PUSIGNAN","Recolter des fonds pour offrir aux enfants scolarises dans les écoles de pusignan des supports pédagogiques utiles a leur éveil","Mairie","69330","PUSIGNAN","5.066942","45.755558"
"CONSEIL DES PARENTS D'ELEVES DU COLLEGE MARYSE BASTIE","Grouper et representer les parents d'eleves","107 rue emile zola","69150","DECINES-CHARPIEU","4.952261","45.764161"
"ASSOCIATION ORCHESTRE DU NORD DAUPHINE","Offrir aux habitants des communes le moyen d'apprendre et de","Mairie","69680","CHASSIEU","4.971745","45.743548"
"JOYEUSE UNION SPORTIVE DE MEYZIEU","Pratique des sports","Hotel de ville","69330","MEYZIEU","5.004135","45.765916"
"ASSOCIATION SPORTIVE DU COLLEGE MARYSE BASTIE","Pratique des sports par les eleves","Rue emile zola","69150","DECINES-CHARPIEU","4.950155","45.764039"
"ASSOCIATION PAROISSIALE DE GENAS AZIEU","Organisation financiere et materielle des paroisses de genas et","Presbytere","69740","GENAS","5.020049","45.737725"
"GROUPEMENT ASSOCIATIF POUR LES LOISIRS ET L'ANIMATION DE SEREZIN (GALASEREZINOIS)","Education et formation des jeunes","Mairie","69360","SEREZIN-DU-RHONE","4.823827","45.629235"
"CLUB SPORTIF ET CULTUREL DU PROGRES","O","1 route de chassieu","69680","CHASSIEU","4.978916","45.739951"
"UNION ARTISTIQUE ET INTELLECTUELLE DES CHEMINOTS FRANCAIS","Etude et pratique d'activites artistiques par les cheminots et","Rue gaston monmousseau","69200","VENISSIEUX","4.878174","45.696629"
"TENNIS CLUB DE MEYZIEU","Pratique du tennis","Mairie","69330","MEYZIEU","5.007907","45.774496"
"ASSOCIATION DES PARENTS D'ELEVES FCPE LEP BRON AUTO","Rechercher et discuter en commun tout ce qui concerne l'interet","282 route de genas","69500","BRON","4.905798","45.751362"
"ASSOCIATION SPORTIVE DU COLLEGE DU PLAN DU LOUP","Développer la vie associative, développer la pratique sportive du plus grand nombre d'élèvesn, favoriser la liaison avec l'environnement sportif de la cité.","35 allée Alban Vistel","69110","SAINTE-FOY-LES-LYON","4.789657","45.7333"
"ASSOCIATION CULTURELLE NAPOLEONNIENNE","Etudier l'histoire de la revolution francaise, premier empire, se","26 avenue gabriel peri","69250","ALBIGNY-SUR-SAONE","4.832071","45.868969"
"ASSOCIATION DES RESTAURANTS D'ENFANTS DE SAINTE FOY LES LYON","Organiser et assurer avec l'aide de la municipalite, le service du","Mairie","69110","SAINTE-FOY-LES-LYON","4.79394","45.736615"
"AMICALE DES SAPEURS POMPIERS DE FLEURIEU SUR SAONE","Instruction et perfectionnement du corps","Depot du materiel","69250","FLEURIEU-SUR-SAONE","4.844843","45.864256"
"AMICALE BOULE SAINT MARTIN","Pratique du sport boules","Hotel saint martin","69660","COLLONGES-AU-MONT-D'OR","4.843871","45.817157"
"ASSOCIATION COMMUNALE D'EDUCATION POUR LA SANTE","Assurer et developper l'information, la promotion de la sante dans la commune de saint fons et de l'etendre aux communes jumelees et parrainees. susciter, favoriser, aider et coordonner toutes activites s'exercant dans le meme sens, en y associant l","24 rue etienne dolet","69190","SAINT-FONS","4.858175","45.706872"
"ASSOCIATION DES PARENTS D'ELEVES DU CES PASTEUR A BRON","Etablir un lien entre les familles et l'ecole","Maison des societes","69500","BRON","4.915795","45.736042"
"CENTRE DE SOINS INFIRMIERS","Gerer et favoriser les activites relevant des auxiliares medicaux","Place andre marie perrin","69290","CRAPONNE","4.723773","45.746571"
"ASSOCIATION DES AGENTS DE MAITRISE ET ASSIMILES DE RHONE POULENC POLYMERES","Faire l'unite des agents de maitrise et assimiles, travailler a la","Usine rhone progil","69190","SAINT-FONS","4.859313","45.701703"
"CONSEIL DE PARENTS D'ELEVES DU COLLEGE LES SEMAILLES A RILLIEUX LA PAPE","Grouper et representer les parents d'eleves","Ces des semailles","69140","RILLIEUX-LA-PAPE","4.911946","45.820346"
"CENTRE SPORTIF ET CULTUREL LYONNAIS","Vacances ou loisirs sportifs et culturels pour les jeunes","Chemin des brosses","69260","CHARBONNIERES-LES-BAINS","4.738649","45.785365"
"COMITE DES PARENTS CATHOLIQUES DU CES D'ECULLY","Proceder a toute etude ou toute demarche, participer a toute orga","1 rue de chalin","69130","ECULLY","4.789048","45.777944"
"ASSOCATION DES LOCATAIRES DU GROUPE POMMIER I ET II","Servir les interets des locataires","88 chemin de pommier","69330","MEYZIEU","5.001685","45.776519"
"AMICALE DES SAPEURS POMPIERS DE LA COMMUNE DE MARCILLY D'AZERGUES","Perfectionner le corps de sapeurs pompiers","Local communal","69380","MARCILLY-D'AZERGUES","4.727699","45.864902"
"ASSOCIATION DES FAMILLES DE BIBOST","Etudier et defendre les interets generaux des familles","Mairie","69690","BIBOST","4.546644","45.797422"
"ASSOCIATION SPORTIVE AUTOMOBILE DE SATHONAY VILLAGE","Pratique du sport automobile","Mairie de sathonay village","69580","SATHONAY-VILLAGE","4.87858","45.830631"
"BOULE DU STADE","La pratique du sport bouliste","Cafe alonzi","69500","BRON","4.922232","45.741561"
"CENTRE DE RECHERCHES PEDAGOGIQUES ET D'EXPRESSIONS ARTISTIQUES MANUELLE CULTURELLE LITTERAIRE ET POETIQUE (CAMAC)","Loisirs artistiques et culturelles pour les enfants","13 chemin des chassagnes","69600","OULLINS","4.809774","45.722735"
"ASSOCIATION PROMOTION MUSICALE DU RHONE","Encourager et defendre l'art musical sous toutes ses formes","Avenue docteur serullaz","69670","VAUGNERAY","4.660382","45.736428"
"LES AMIS DU LIVRE PROGRESSISTE DE GRIGNY","Faire connaitre la litterature progressiste","49 rue Joseph Faure","69700","GIVORS","4.773605","45.584226"
"ASSOCIATION DE LA BRIGAGE DE RESERVE DEPARTEMENTALE DE LA POSTE DU RHONE","Solidarite entre agents","9 avenue Charles de Gaulle","69350","LA-MULATIERE","4.812136","45.726048"
"ASSOCIATION EDUCATIVE ET CHARITABLE DE LA PLACE GRANDCLEMENT","Initiative et organisation de toutes oeuvre sociales educatives","47 place grandclement","69100","VILLEURBANNE","4.888197","45.759235"
"COMITE DE BRIGNAIS DE LA FEDERATION NATIONALE DES ANCIENS COMBATTANTS ENALGERIE (FNACA)","Defense des droits et interets des anciens combattants","Mairie","69530","BRIGNAIS","4.755426","45.674741"
"COMITE D'INTERET LOCAL CREPIEUX VIRALAMANDE LES QUATRE VENTS","Defense des interets du quartier de viralamande","Mairie annexe","69140","RILLIEUX-LA-PAPE","4.892842","45.825938"
"Mairie de Cailloux-sur-Fontaines","Vous souhaitez vous inscrire à l'une des activités proposées par notre école de musique? Vous souhaitez intégrer notre chorale pour adultes ou notre orchestre d'harmonie? Vous avez besoin d'informations?","Place du 8 Mai 1945","69270","CAILLOUX-SUR-FONTAINES","4.870181","45.849092"
"ASSOCIATION DES ETUDIANTS ET ANCIENS ETUDIANTS DE L'INSTITUT UNIVERSITAIRE DE TECHNOLOGIE DEPARTEMENT DE BIOLOGIE APPLIQUEE","Amitie et solidarite entre etudiants et anciens etudiants","43 boulevard du 11 novembre","69100","VILLEURBANNE","4.872319","45.779216"
"CENTRE CULTUREL COMMUNAL DE VAULX EN VELIN","Offrir la possibilite aux organisations de se rencontrer et de","Mairie","69120","VAULX-EN-VELIN","4.925453","45.786896"
"FEDERATION DEPARTEMENTALE DE LA CONFEDERATION INTERPROFESSIONNELLE DE DEFENSEET D'UNION NATIONALE D'ACTION DES TRAVAILLEURS INDEPENDANTS","La defense des interets moraux et materiels des travailleurs inde","10 chemin du vieux crepieux","69300","CALUIRE-ET-CUIRE","4.877486","45.799361"
"COMITE DE DEVELOPPEMENT DE LA REGION AGRICOLE LYONNAISE","Promouvoir par une action concertée des organisations participantes , le développement technique économique et social de la région agricole lyonnaise.","234 rue charles de gaulle","69530","BRIGNAIS","4.752156","45.664405"
"ASSOCIATION SPORTIVE DU CES MIXTE RUE COLETTE SAINT PRIEST","Pratique des sports par les eleves","Ces rue colette","69800","SAINT-PRIEST","4.940183","45.690994"
"ASSOCIATION TWIRLING PARADE DES ARCS EN CIEL DE GENAS","Apporter a la jeunesse les moyens pour des occupations et des","Mairie","69740","GENAS","5.01822","45.74032"
"LES AMIS DE LA GARENNE","Organisation de la chasse","7 chemin de boutary","69300","CALUIRE-ET-CUIRE","4.858069","45.79226"
"ASSOCIATION SOCIO EDUCATIVE DU CES MIXTE RUE COLETTE A SAINT PRIEST","Favoriser dans l'etablissement, une forme educative et collective","Ces rue colette","69800","SAINT-PRIEST","4.940183","45.690994"
"CLUB SPORTIF ET ARTISTIQUE DE L'ECOLE DU SERVICE DE SANTE DES ARMEES DELYON (CSAESSAL)","Pratique des sports","331 avenue franklin roosevelt","69500","BRON","4.905764","45.734463"
"CLUB OMNISPORTS SOPRALEC","Pratique des sports","95 rue frederic fays","69100","VILLEURBANNE","4.905663","45.760895"
"FOOTBALL CLUB DE LA GIRAUDIERE","Pratique du football","Cafe reissier la giraudiere","69690","BRUSSIEU","4.542811","45.749112"
"CLUB MONTABERT SPORTS LOISIRS","Pratique des sports","203 route de grenoble","69800","SAINT-PRIEST","4.966172","45.714126"
"CLUB DES JEUNES DE RILLIEUX","Promouvoir des loisirs educatifs en faveur de la jeunesse de la","Rue fleury salignat","69140","RILLIEUX-LA-PAPE","4.89579","45.822189"
"CONSEIL DES PARENTS D'ELEVES DU COLLEGE DU PLAN DU LOUP","Rechercher et discuter en commun tout ce qui concerne l'interet de","16 rue Galilée","69100","VILLEURBANNE","4.879609","45.755092"
"UNION SPORTIVE OUEST LYONNAIS","Pratique des sports","Mairie","69670","VAUGNERAY","4.658026","45.737896"
"ASSOCIATION LYONNAISE POUR LA RECHERCHE SUR L'ORGANISATION CEREBRALE (ALROC)","Apporter une aide financiere et morale a la recherche sur le cerveau","16 avenue du doyen lepine","69500","BRON","4.900506","45.74925"
"CONSEIL DES PARENTS D'ELEVES DU CEG MIXTE LA MULATIERE","Grouper et representer les parents d'eleves","Chemin du grand roule","69110","SAINTE-FOY-LES-LYON","4.807387","45.729881"
"ASSOCIATION SPORTIVE DU COMITE D'ENTREPRISE DE RHONE-ALPES (ASCERP)","Pratique des sports","24 avenue Jean Jaurès","69150","DECINES-CHARPIEU","4.939009","45.767612"
"AUMONERIE DU COLLEGE CHARCOT","Participer a l'enseignement religieux des enfants","Place saint luc","69110","SAINTE-FOY-LES-LYON","4.800124","45.749883"
"JEUNE CINE CLUB","Animation audio visuelles en faveur des enfants et adolescents","1 rue charny","69100","VILLEURBANNE","4.889361","45.754906"
"ASSOCIATION SYNDICALE DES FAMILLES DE FRANCHEVILLE","Assurer la defense et la representation des interets generaux des foyers et des familles populaires ainsi que l'etude des diverses questions et la coordination des diverses activites ou services qui relevent du domaine social familial","10 chemin bellevue","69340","FRANCHEVILLE","4.769217","45.741038"
"AMICALE DE SOURCIEUX","Defendre et aider l'ecole publique ; etablir un lien entre les","Mairie","69210","SOURCIEUX-LES-MINES","4.624548","45.803773"
"CENTRE D'ACTIVITES PHYSIQUES ET SPORTIVES FONTAINES SAINT MARTIN","Pratique des sports","Mairie","69270","FONTAINES-SAINT-MARTIN","4.852177","45.843177"
